{
    "00651R": {
        "Roll_No": "00651R",
        "Off_Name": "BORRIS MXD N S",
        "County": "Carlow",
        "Ethos": "CATHOLIC",
        "xcoord": "273199",
        "ycoord": "150324",
        "Long": "-6.91956",
        "Lat": "52.5993",
        "note": "1"
    },
    "00977B": {
        "Roll_No": "00977B",
        "Off_Name": "BALLYCONNELL N S",
        "County": "Carlow",
        "Ethos": "CATHOLIC",
        "xcoord": "292481",
        "ycoord": "174367",
        "Long": "-6.62828",
        "Lat": "52.8124",
        "note": "0"
    },
    "01116A": {
        "Roll_No": "01116A",
        "Off_Name": "BAILE AN CHUILINN N S",
        "County": "Carlow",
        "Ethos": "CATHOLIC",
        "xcoord": "272463",
        "ycoord": "155784",
        "Long": "-6.92923",
        "Lat": "52.6485",
        "note": "7"
    },
    "01215C": {
        "Roll_No": "01215C",
        "Off_Name": "NEWTOWN DUNLECKNEY MXD",
        "County": "Carlow",
        "Ethos": "CATHOLIC",
        "xcoord": "275959",
        "ycoord": "164072",
        "Long": "-6.87567",
        "Lat": "52.7225",
        "note": "2"
    },
    "01415K": {
        "Roll_No": "01415K",
        "Off_Name": "RATHOE NS",
        "County": "Carlow",
        "Ethos": "CATHOLIC",
        "xcoord": "281027",
        "ycoord": "171359",
        "Long": "-6.79887",
        "Lat": "52.7872",
        "note": "1"
    },
    "02124E": {
        "Roll_No": "02124E",
        "Off_Name": "SCOIL NAIS MOLAISE",
        "County": "Carlow",
        "Ethos": "CATHOLIC",
        "xcoord": "265307",
        "ycoord": "165801",
        "Long": "-7.03297",
        "Lat": "52.7394",
        "note": "3"
    },
    "04077I": {
        "Roll_No": "04077I",
        "Off_Name": "SCOIL NAIS BHRIDE",
        "County": "Carlow",
        "Ethos": "CATHOLIC",
        "xcoord": "282120",
        "ycoord": "176948",
        "Long": "-6.78127",
        "Lat": "52.8373",
        "note": "7"
    },
    "09320Q": {
        "Roll_No": "09320Q",
        "Off_Name": "SCOIL NAIS MHUIRE",
        "County": "Carlow",
        "Ethos": "CATHOLIC",
        "xcoord": "278553",
        "ycoord": "156943",
        "Long": "-6.83898",
        "Lat": "52.6581",
        "note": "5"
    },
    "11135K": {
        "Roll_No": "11135K",
        "Off_Name": "ST MARYS N S",
        "County": "Carlow",
        "Ethos": "CHURCH OF IRELAND",
        "xcoord": "270371",
        "ycoord": "161495",
        "Long": "-6.95892",
        "Lat": "52.7001",
        "note": "1"
    },
    "13105L": {
        "Roll_No": "13105L",
        "Off_Name": "ST BRIDGETS MONASTERY",
        "County": "Carlow",
        "Ethos": "CATHOLIC",
        "xcoord": "270696",
        "ycoord": "161495",
        "Long": "-6.95411",
        "Lat": "52.7",
        "note": "0"
    },
    "13507I": {
        "Roll_No": "13507I",
        "Off_Name": "S N MUIRE LOURDES",
        "County": "Carlow",
        "Ethos": "CATHOLIC",
        "xcoord": "285444",
        "ycoord": "172887",
        "Long": "-6.73301",
        "Lat": "52.8003",
        "note": "3"
    },
    "13607M": {
        "Roll_No": "13607M",
        "Off_Name": "ST COLUMBAS N S",
        "County": "Carlow",
        "Ethos": "CHURCH OF IRELAND",
        "xcoord": "285514",
        "ycoord": "173275",
        "Long": "-6.73187",
        "Lat": "52.8037",
        "note": "9"
    },
    "14837L": {
        "Roll_No": "14837L",
        "Off_Name": "S N PEADAR AGUS POL",
        "County": "Carlow",
        "Ethos": "CATHOLIC",
        "xcoord": "283204",
        "ycoord": "165930",
        "Long": "-6.76798",
        "Lat": "52.7381",
        "note": "7"
    },
    "16080N": {
        "Roll_No": "16080N",
        "Off_Name": "S N PHADRAIG NAOFA",
        "County": "Carlow",
        "Ethos": "CATHOLIC",
        "xcoord": "285520",
        "ycoord": "173189",
        "Long": "-6.7318",
        "Lat": "52.803",
        "note": "5"
    },
    "16938E": {
        "Roll_No": "16938E",
        "Off_Name": "FR CULLEN MEMORIAL N S",
        "County": "Carlow",
        "Ethos": "CATHOLIC",
        "xcoord": "274499",
        "ycoord": "172123",
        "Long": "-6.89544",
        "Lat": "52.795",
        "note": "7"
    },
    "17053P": {
        "Roll_No": "17053P",
        "Off_Name": "BISHOP FOLEY MEMORIAL SCHOOL",
        "County": "Carlow",
        "Ethos": "CATHOLIC",
        "xcoord": "272512",
        "ycoord": "177195",
        "Long": "-6.92377",
        "Lat": "52.8409",
        "note": "5"
    },
    "17096K": {
        "Roll_No": "17096K",
        "Off_Name": "S N NMH FHINGIN",
        "County": "Carlow",
        "Ethos": "CATHOLIC",
        "xcoord": "277649",
        "ycoord": "159052",
        "Long": "-6.85184",
        "Lat": "52.6771",
        "note": "4"
    },
    "17127S": {
        "Roll_No": "17127S",
        "Off_Name": "ST JOSEPHS NS",
        "County": "Carlow",
        "Ethos": "CATHOLIC",
        "xcoord": "297277",
        "ycoord": "180092",
        "Long": "-6.55546",
        "Lat": "52.863",
        "note": "8"
    },
    "17330P": {
        "Roll_No": "17330P",
        "Off_Name": "SCOIL N MOLING-GLYNN",
        "County": "Carlow",
        "Ethos": "CATHOLIC",
        "xcoord": "274201",
        "ycoord": "139477",
        "Long": "-6.9072",
        "Lat": "52.5017",
        "note": "9"
    },
    "17462J": {
        "Roll_No": "17462J",
        "Off_Name": "SCOIL NAIS MHICHIL",
        "County": "Carlow",
        "Ethos": "CATHOLIC",
        "xcoord": "274418",
        "ycoord": "144438",
        "Long": "-6.9029",
        "Lat": "52.5463",
        "note": "3"
    },
    "17481N": {
        "Roll_No": "17481N",
        "Off_Name": "ST BRENDANS N S",
        "County": "Carlow",
        "Ethos": "CATHOLIC",
        "xcoord": "274710",
        "ycoord": "136225",
        "Long": "-6.90043",
        "Lat": "52.4724",
        "note": "1"
    },
    "17501Q": {
        "Roll_No": "17501Q",
        "Off_Name": "Bennekerry National School",
        "County": "Carlow",
        "Ethos": "CATHOLIC",
        "xcoord": "276212",
        "ycoord": "176121",
        "Long": "-6.86912",
        "Lat": "52.8307",
        "note": "3"
    },
    "17514C": {
        "Roll_No": "17514C",
        "Off_Name": "S N CLUAIN NA GALL",
        "County": "Carlow",
        "Ethos": "CATHOLIC",
        "xcoord": "291401",
        "ycoord": "161388",
        "Long": "-6.64791",
        "Lat": "52.696",
        "note": "1"
    },
    "17663T": {
        "Roll_No": "17663T",
        "Off_Name": "ST PATRICKS N S",
        "County": "Carlow",
        "Ethos": "CATHOLIC",
        "xcoord": "288216",
        "ycoord": "181805",
        "Long": "-6.68951",
        "Lat": "52.8799",
        "note": "7"
    },
    "17669I": {
        "Roll_No": "17669I",
        "Off_Name": "S N TREASA NAOMHA",
        "County": "Carlow",
        "Ethos": "CATHOLIC",
        "xcoord": "293017",
        "ycoord": "183185",
        "Long": "-6.61781",
        "Lat": "52.8915",
        "note": "0"
    },
    "17756D": {
        "Roll_No": "17756D",
        "Off_Name": "BALLINABRANNA MXD N S",
        "County": "Carlow",
        "Ethos": "CATHOLIC",
        "xcoord": "268668",
        "ycoord": "170962",
        "Long": "-6.98213",
        "Lat": "52.7854",
        "note": "4"
    },
    "17796P": {
        "Roll_No": "17796P",
        "Off_Name": "Our Lady's National School",
        "County": "Carlow",
        "Ethos": "CATHOLIC",
        "xcoord": "273518",
        "ycoord": "166934",
        "Long": "-6.91115",
        "Lat": "52.7485",
        "note": "1"
    },
    "17994T": {
        "Roll_No": "17994T",
        "Off_Name": "S N FHOIRTCHEIRN/FHININ",
        "County": "Carlow",
        "Ethos": "CATHOLIC",
        "xcoord": "282544",
        "ycoord": "160140",
        "Long": "-6.77921",
        "Lat": "52.6862",
        "note": "4"
    },
    "18024N": {
        "Roll_No": "18024N",
        "Off_Name": "SCOIL MUIRE GAN SMAL",
        "County": "Carlow",
        "Ethos": "CATHOLIC",
        "xcoord": "287428",
        "ycoord": "167987",
        "Long": "-6.70491",
        "Lat": "52.7559",
        "note": "8"
    },
    "18090D": {
        "Roll_No": "18090D",
        "Off_Name": "S N CILL DAMHAIN",
        "County": "Carlow",
        "Ethos": "CATHOLIC",
        "xcoord": "288933",
        "ycoord": "160048",
        "Long": "-6.68477",
        "Lat": "52.6844",
        "note": "0"
    },
    "18183K": {
        "Roll_No": "18183K",
        "Off_Name": "QUEEN OF UNIVERSE N S",
        "County": "Carlow",
        "Ethos": "CATHOLIC",
        "xcoord": "270129",
        "ycoord": "161621",
        "Long": "-6.96247",
        "Lat": "52.7012",
        "note": "8"
    },
    "18363M": {
        "Roll_No": "18363M",
        "Off_Name": "S N MUIRE GAN SMAL",
        "County": "Carlow",
        "Ethos": "CATHOLIC",
        "xcoord": "272633",
        "ycoord": "176860",
        "Long": "-6.92205",
        "Lat": "52.8378",
        "note": "2"
    },
    "18424G": {
        "Roll_No": "18424G",
        "Off_Name": "SCOIL NAIS IOSEF NAOFA",
        "County": "Carlow",
        "Ethos": "CATHOLIC",
        "xcoord": "272598",
        "ycoord": "176948",
        "Long": "-6.92255",
        "Lat": "52.8386",
        "note": "3"
    },
    "18510W": {
        "Roll_No": "18510W",
        "Off_Name": "St Patrick's National School",
        "County": "Carlow",
        "Ethos": "CATHOLIC",
        "xcoord": "277310",
        "ycoord": "147230",
        "Long": "-6.85962",
        "Lat": "52.571",
        "note": "3"
    },
    "18609S": {
        "Roll_No": "18609S",
        "Off_Name": "S N FIONTAIN NAOFA",
        "County": "Carlow",
        "Ethos": "CATHOLIC",
        "xcoord": "285279",
        "ycoord": "179321",
        "Long": "-6.73378",
        "Lat": "52.8581",
        "note": "8"
    },
    "18615N": {
        "Roll_No": "18615N",
        "Off_Name": "S N CEATHARLACH",
        "County": "Carlow",
        "Ethos": "CHURCH OF IRELAND",
        "xcoord": "271992",
        "ycoord": "175585",
        "Long": "-6.93185",
        "Lat": "52.8265",
        "note": "5"
    },
    "19477J": {
        "Roll_No": "19477J",
        "Off_Name": "HOLY FAMILY B N S",
        "County": "Carlow",
        "Ethos": "CATHOLIC",
        "xcoord": "273297",
        "ycoord": "176670",
        "Long": "-6.91224",
        "Lat": "52.836",
        "note": "4"
    },
    "19478L": {
        "Roll_No": "19478L",
        "Off_Name": "Holy Family Girls N S",
        "County": "Carlow",
        "Ethos": "CATHOLIC",
        "xcoord": "273325",
        "ycoord": "176589",
        "Long": "-6.91185",
        "Lat": "52.8353",
        "note": "7"
    },
    "19784S": {
        "Roll_No": "19784S",
        "Off_Name": "ST LASERIANS MXD NS",
        "County": "Carlow",
        "Ethos": "CATHOLIC",
        "xcoord": "269499",
        "ycoord": "165370",
        "Long": "-6.971",
        "Lat": "52.735",
        "note": "3"
    },
    "19811S": {
        "Roll_No": "19811S",
        "Off_Name": "GAELSCOIL EOGHAIN U\ufffd THUAIRISC",
        "County": "Carlow",
        "Ethos": "CATHOLIC",
        "xcoord": "273395",
        "ycoord": "175932",
        "Long": "-6.91096",
        "Lat": "52.8294",
        "note": "0"
    },
    "19958C": {
        "Roll_No": "19958C",
        "Off_Name": "S.N. NAOMH FHIACH",
        "County": "Carlow",
        "Ethos": "CATHOLIC",
        "xcoord": "271106",
        "ycoord": "176780",
        "Long": "-6.94473",
        "Lat": "52.8373",
        "note": "4"
    },
    "20295K": {
        "Roll_No": "20295K",
        "Off_Name": "Carlow Educate Together NS",
        "County": "Carlow",
        "Ethos": "MULTI DENOMINATIONAL",
        "xcoord": "270598",
        "ycoord": "177131",
        "Long": "-6.95219",
        "Lat": "52.8405",
        "note": "1"
    },
    "01356U": {
        "Roll_No": "01356U",
        "Off_Name": "KILNALECK MIXED N S",
        "County": "Cavan",
        "Ethos": "CATHOLIC",
        "xcoord": "244694",
        "ycoord": "290228",
        "Long": "-7.32065",
        "Lat": "53.8595",
        "note": "0"
    },
    "05627W": {
        "Roll_No": "05627W",
        "Off_Name": "BAILIEBORO MODEL N S",
        "County": "Cavan",
        "Ethos": "CHURCH OF IRELAND",
        "xcoord": "267435",
        "ycoord": "296887",
        "Long": "-6.97357",
        "Lat": "53.9169",
        "note": "5"
    },
    "06998Q": {
        "Roll_No": "06998Q",
        "Off_Name": "St Patrick's NS",
        "County": "Cavan",
        "Ethos": "CATHOLIC",
        "xcoord": "213643",
        "ycoord": "318831",
        "Long": "-7.79134",
        "Lat": "54.1183",
        "note": "1"
    },
    "08143P": {
        "Roll_No": "08143P",
        "Off_Name": "S N MHUIRE",
        "County": "Cavan",
        "Ethos": "CATHOLIC",
        "xcoord": "219258",
        "ycoord": "326916",
        "Long": "-7.70495",
        "Lat": "54.1908",
        "note": "7"
    },
    "08453H": {
        "Roll_No": "08453H",
        "Off_Name": "S N CRUABANAI",
        "County": "Cavan",
        "Ethos": "CATHOLIC",
        "xcoord": "244571",
        "ycoord": "301985",
        "Long": "-7.32081",
        "Lat": "53.9652",
        "note": "5"
    },
    "08490N": {
        "Roll_No": "08490N",
        "Off_Name": "ST CLARES PRIMARY SCHOOL",
        "County": "Cavan",
        "Ethos": "CATHOLIC",
        "xcoord": "242225",
        "ycoord": "304903",
        "Long": "-7.35615",
        "Lat": "53.9916",
        "note": "5"
    },
    "08948L": {
        "Roll_No": "08948L",
        "Off_Name": "MILLTOWN N S",
        "County": "Cavan",
        "Ethos": "CATHOLIC",
        "xcoord": "234408",
        "ycoord": "312922",
        "Long": "-7.47443",
        "Lat": "54.0642",
        "note": "7"
    },
    "10146K": {
        "Roll_No": "10146K",
        "Off_Name": "CORLISS N S",
        "County": "Cavan",
        "Ethos": "CATHOLIC",
        "xcoord": "233039",
        "ycoord": "302950",
        "Long": "-7.49642",
        "Lat": "53.9747",
        "note": "9"
    },
    "11205F": {
        "Roll_No": "11205F",
        "Off_Name": "KILLESHANDRA National School ( C of I)",
        "County": "Cavan",
        "Ethos": "CHURCH OF IRELAND",
        "xcoord": "230978",
        "ycoord": "307164",
        "Long": "-7.52741",
        "Lat": "54.0127",
        "note": "0"
    },
    "11409V": {
        "Roll_No": "11409V",
        "Off_Name": "BALLYCONELL CENTRAL N S",
        "County": "Cavan",
        "Ethos": "CHURCH OF IRELAND",
        "xcoord": "227006",
        "ycoord": "318767",
        "Long": "-7.58697",
        "Lat": "54.1172",
        "note": "3"
    },
    "11517B": {
        "Roll_No": "11517B",
        "Off_Name": "CAVAN 1 N S",
        "County": "Cavan",
        "Ethos": "CHURCH OF IRELAND",
        "xcoord": "241842",
        "ycoord": "304726",
        "Long": "-7.36202",
        "Lat": "53.99",
        "note": "7"
    },
    "11541V": {
        "Roll_No": "11541V",
        "Off_Name": "DROMAILI S N",
        "County": "Cavan",
        "Ethos": "CATHOLIC",
        "xcoord": "240443",
        "ycoord": "306138",
        "Long": "-7.38316",
        "Lat": "54.0028",
        "note": "6"
    },
    "12099O": {
        "Roll_No": "12099O",
        "Off_Name": "BILLIS N S",
        "County": "Cavan",
        "Ethos": "CHURCH OF IRELAND",
        "xcoord": "256245",
        "ycoord": "293373",
        "Long": "-7.14452",
        "Lat": "53.8867",
        "note": "4"
    },
    "12312L": {
        "Roll_No": "12312L",
        "Off_Name": "DARLEY N S",
        "County": "Cavan",
        "Ethos": "CHURCH OF IRELAND",
        "xcoord": "259843",
        "ycoord": "314487",
        "Long": "-7.08566",
        "Lat": "54.076",
        "note": "4"
    },
    "12713G": {
        "Roll_No": "12713G",
        "Off_Name": "CORRATOBER N S",
        "County": "Cavan",
        "Ethos": "CATHOLIC",
        "xcoord": "229273",
        "ycoord": "294729",
        "Long": "-7.55461",
        "Lat": "53.9011",
        "note": "7"
    },
    "13203L": {
        "Roll_No": "13203L",
        "Off_Name": "ST PATRICKS MXD N S",
        "County": "Cavan",
        "Ethos": "CATHOLIC",
        "xcoord": "230665",
        "ycoord": "291702",
        "Long": "-7.53374",
        "Lat": "53.8738",
        "note": "2"
    },
    "13271F": {
        "Roll_No": "13271F",
        "Off_Name": "FAIRGREEN N S",
        "County": "Cavan",
        "Ethos": "CHURCH OF IRELAND",
        "xcoord": "236445",
        "ycoord": "316779",
        "Long": "-7.44285",
        "Lat": "54.0987",
        "note": "7"
    },
    "14073G": {
        "Roll_No": "14073G",
        "Off_Name": "CASTLETARA N S",
        "County": "Cavan",
        "Ethos": "CATHOLIC",
        "xcoord": "246504",
        "ycoord": "309267",
        "Long": "-7.29024",
        "Lat": "54.0304",
        "note": "2"
    },
    "14211P": {
        "Roll_No": "14211P",
        "Off_Name": "S N LATHRACH 2",
        "County": "Cavan",
        "Ethos": "CATHOLIC",
        "xcoord": "274865",
        "ycoord": "295421",
        "Long": "-6.86086",
        "Lat": "53.9027",
        "note": "7"
    },
    "14320U": {
        "Roll_No": "14320U",
        "Off_Name": "CORLEA N S",
        "County": "Cavan",
        "Ethos": "CATHOLIC",
        "xcoord": "274039",
        "ycoord": "300029",
        "Long": "-6.87231",
        "Lat": "53.9442",
        "note": "3"
    },
    "14336M": {
        "Roll_No": "14336M",
        "Off_Name": "SEARCOG I N S",
        "County": "Cavan",
        "Ethos": "CATHOLIC",
        "xcoord": "272663",
        "ycoord": "305342",
        "Long": "-6.892",
        "Lat": "53.9922",
        "note": "7"
    },
    "14399N": {
        "Roll_No": "14399N",
        "Off_Name": "KILLYGARRY N S",
        "County": "Cavan",
        "Ethos": "CATHOLIC",
        "xcoord": "245599",
        "ycoord": "304329",
        "Long": "-7.30479",
        "Lat": "53.9862",
        "note": "2"
    },
    "14732U": {
        "Roll_No": "14732U",
        "Off_Name": "SCOIL BHRIDE",
        "County": "Cavan",
        "Ethos": "CATHOLIC",
        "xcoord": "249231",
        "ycoord": "285300",
        "Long": "-7.25248",
        "Lat": "53.8149",
        "note": "6"
    },
    "15120R": {
        "Roll_No": "15120R",
        "Off_Name": "KILLYCONNAN N S",
        "County": "Cavan",
        "Ethos": "CATHOLIC",
        "xcoord": "248761",
        "ycoord": "301767",
        "Long": "-7.257",
        "Lat": "53.9629",
        "note": "3"
    },
    "15452T": {
        "Roll_No": "15452T",
        "Off_Name": "KILDALLON N S",
        "County": "Cavan",
        "Ethos": "CATHOLIC",
        "xcoord": "229472",
        "ycoord": "313032",
        "Long": "-7.54981",
        "Lat": "54.0655",
        "note": "9"
    },
    "15502I": {
        "Roll_No": "15502I",
        "Off_Name": "KILLINKERE N S",
        "County": "Cavan",
        "Ethos": "CATHOLIC",
        "xcoord": "261279",
        "ycoord": "293362",
        "Long": "-7.06796",
        "Lat": "53.886",
        "note": "6"
    },
    "16057S": {
        "Roll_No": "16057S",
        "Off_Name": "CONVENT OF MERCY N S",
        "County": "Cavan",
        "Ethos": "CATHOLIC",
        "xcoord": "236262",
        "ycoord": "316964",
        "Long": "-7.44563",
        "Lat": "54.1004",
        "note": "8"
    },
    "16083T": {
        "Roll_No": "16083T",
        "Off_Name": "VIRGINIA MXD N S",
        "County": "Cavan",
        "Ethos": "CATHOLIC",
        "xcoord": "260905",
        "ycoord": "287700",
        "Long": "-7.07477",
        "Lat": "53.8352",
        "note": "2"
    },
    "16093W": {
        "Roll_No": "16093W",
        "Off_Name": "BALLYCONNELL MXD N S",
        "County": "Cavan",
        "Ethos": "CATHOLIC",
        "xcoord": "227405",
        "ycoord": "318357",
        "Long": "-7.5809",
        "Lat": "54.1135",
        "note": "8"
    },
    "16316Q": {
        "Roll_No": "16316Q",
        "Off_Name": "ST MARYS N S",
        "County": "Cavan",
        "Ethos": "CATHOLIC",
        "xcoord": "227583",
        "ycoord": "296978",
        "Long": "-7.58012",
        "Lat": "53.9214",
        "note": "0"
    },
    "16390F": {
        "Roll_No": "16390F",
        "Off_Name": "SCOIL BHRIDE",
        "County": "Cavan",
        "Ethos": "CATHOLIC",
        "xcoord": "231118",
        "ycoord": "306486",
        "Long": "-7.52534",
        "Lat": "54.0066",
        "note": "8"
    },
    "16520P": {
        "Roll_No": "16520P",
        "Off_Name": "ST MARY'S N.S.",
        "County": "Cavan",
        "Ethos": "CATHOLIC",
        "xcoord": "250944",
        "ycoord": "310589",
        "Long": "-7.22226",
        "Lat": "54.0419",
        "note": "8"
    },
    "16767D": {
        "Roll_No": "16767D",
        "Off_Name": "CORONEA N S",
        "County": "Cavan",
        "Ethos": "CATHOLIC",
        "xcoord": "231340",
        "ycoord": "298854",
        "Long": "-7.52274",
        "Lat": "53.938",
        "note": "9"
    },
    "16921K": {
        "Roll_No": "16921K",
        "Off_Name": "S N BEAL ATHA NA NEACH",
        "County": "Cavan",
        "Ethos": "CATHOLIC",
        "xcoord": "238579",
        "ycoord": "298192",
        "Long": "-7.41259",
        "Lat": "53.9316",
        "note": "0"
    },
    "16959M": {
        "Roll_No": "16959M",
        "Off_Name": "S N CORRABHA",
        "County": "Cavan",
        "Ethos": "CATHOLIC",
        "xcoord": "204966",
        "ycoord": "327372",
        "Long": "-7.92391",
        "Lat": "54.1952",
        "note": "4"
    },
    "17230L": {
        "Roll_No": "17230L",
        "Off_Name": "SCOIL NAOMH BRID",
        "County": "Cavan",
        "Ethos": "CATHOLIC",
        "xcoord": "244914",
        "ycoord": "315374",
        "Long": "-7.3136",
        "Lat": "54.0855",
        "note": "9"
    },
    "17240O": {
        "Roll_No": "17240O",
        "Off_Name": "S N TAMHNACH DHUIBH",
        "County": "Cavan",
        "Ethos": "CATHOLIC",
        "xcoord": "261808",
        "ycoord": "301526",
        "Long": "-7.05827",
        "Lat": "53.9593",
        "note": "4"
    },
    "17326B": {
        "Roll_No": "17326B",
        "Off_Name": "S N NAOMH FEIDHLIM",
        "County": "Cavan",
        "Ethos": "CATHOLIC",
        "xcoord": "241791",
        "ycoord": "304810",
        "Long": "-7.36278",
        "Lat": "53.9908",
        "note": "8"
    },
    "17440W": {
        "Roll_No": "17440W",
        "Off_Name": "S N NAOMH MAODHOG",
        "County": "Cavan",
        "Ethos": "CATHOLIC",
        "xcoord": "223896",
        "ycoord": "315804",
        "Long": "-7.63477",
        "Lat": "54.0907",
        "note": "8"
    },
    "17479D": {
        "Roll_No": "17479D",
        "Off_Name": "SCOIL MHUIRE",
        "County": "Cavan",
        "Ethos": "CATHOLIC",
        "xcoord": "236935",
        "ycoord": "296511",
        "Long": "-7.43782",
        "Lat": "53.9166",
        "note": "6"
    },
    "17531C": {
        "Roll_No": "17531C",
        "Off_Name": "BAILE NA MONA",
        "County": "Cavan",
        "Ethos": "CATHOLIC",
        "xcoord": "268864",
        "ycoord": "294673",
        "Long": "-6.95232",
        "Lat": "53.8968",
        "note": "7"
    },
    "17601U": {
        "Roll_No": "17601U",
        "Off_Name": "S N DOIRE NA CEISE",
        "County": "Cavan",
        "Ethos": "CATHOLIC",
        "xcoord": "262881",
        "ycoord": "309410",
        "Long": "-7.0403",
        "Lat": "54.03",
        "note": "9"
    },
    "17625L": {
        "Roll_No": "17625L",
        "Off_Name": "CNOC AN TEAMPAILL",
        "County": "Cavan",
        "Ethos": "CATHOLIC",
        "xcoord": "260114",
        "ycoord": "284158",
        "Long": "-7.08748",
        "Lat": "53.8035",
        "note": "6"
    },
    "17630E": {
        "Roll_No": "17630E",
        "Off_Name": "S N MAODHOG",
        "County": "Cavan",
        "Ethos": "CATHOLIC",
        "xcoord": "265998",
        "ycoord": "304733",
        "Long": "-6.99375",
        "Lat": "53.9876",
        "note": "5"
    },
    "17780A": {
        "Roll_No": "17780A",
        "Off_Name": "BALLYHAISE N S",
        "County": "Cavan",
        "Ethos": "CATHOLIC",
        "xcoord": "244623",
        "ycoord": "310845",
        "Long": "-7.31872",
        "Lat": "54.0448",
        "note": "4"
    },
    "17990L": {
        "Roll_No": "17990L",
        "Off_Name": "S N DROM CNAMH",
        "County": "Cavan",
        "Ethos": "CATHOLIC",
        "xcoord": "244417",
        "ycoord": "305505",
        "Long": "-7.32264",
        "Lat": "53.9968",
        "note": "2"
    },
    "18059J": {
        "Roll_No": "18059J",
        "Off_Name": "BAILIEBORO N S",
        "County": "Cavan",
        "Ethos": "CATHOLIC",
        "xcoord": "267409",
        "ycoord": "296758",
        "Long": "-6.974",
        "Lat": "53.9158",
        "note": "2"
    },
    "18127A": {
        "Roll_No": "18127A",
        "Off_Name": "S N MHUIRE",
        "County": "Cavan",
        "Ethos": "CATHOLIC",
        "xcoord": "236465",
        "ycoord": "316694",
        "Long": "-7.44256",
        "Lat": "54.098",
        "note": "6"
    },
    "18340A": {
        "Roll_No": "18340A",
        "Off_Name": "S N PADRAIG",
        "County": "Cavan",
        "Ethos": "CATHOLIC",
        "xcoord": "250734",
        "ycoord": "313983",
        "Long": "-7.2249",
        "Lat": "54.0724",
        "note": "1"
    },
    "18346M": {
        "Roll_No": "18346M",
        "Off_Name": "S N GREACH RATHAIN",
        "County": "Cavan",
        "Ethos": "CATHOLIC",
        "xcoord": "230560",
        "ycoord": "316646",
        "Long": "-7.53283",
        "Lat": "54.0979",
        "note": "5"
    },
    "18355N": {
        "Roll_No": "18355N",
        "Off_Name": "KNOCKNAGILLA N S",
        "County": "Cavan",
        "Ethos": "CATHOLIC",
        "xcoord": "251287",
        "ycoord": "298652",
        "Long": "-7.21904",
        "Lat": "53.9346",
        "note": "8"
    },
    "18393V": {
        "Roll_No": "18393V",
        "Off_Name": "S N CILLIN",
        "County": "Cavan",
        "Ethos": "CATHOLIC",
        "xcoord": "265046",
        "ycoord": "289851",
        "Long": "-7.01142",
        "Lat": "53.854",
        "note": "9"
    },
    "18518P": {
        "Roll_No": "18518P",
        "Off_Name": "S N CORR LORGAN",
        "County": "Cavan",
        "Ethos": "CATHOLIC",
        "xcoord": "242151",
        "ycoord": "301420",
        "Long": "-7.35776",
        "Lat": "53.9603",
        "note": "6"
    },
    "18564W": {
        "Roll_No": "18564W",
        "Off_Name": "S N LEITIR",
        "County": "Cavan",
        "Ethos": "CATHOLIC",
        "xcoord": "264986",
        "ycoord": "298015",
        "Long": "-7.0106",
        "Lat": "53.9274",
        "note": "0"
    },
    "18833A": {
        "Roll_No": "18833A",
        "Off_Name": "S N LATHRACH",
        "County": "Cavan",
        "Ethos": "CATHOLIC",
        "xcoord": "251480",
        "ycoord": "305159",
        "Long": "-7.215",
        "Lat": "53.9931",
        "note": "7"
    },
    "18857O": {
        "Roll_No": "18857O",
        "Off_Name": "S N CARRAIG A BRUIS",
        "County": "Cavan",
        "Ethos": "CATHOLIC",
        "xcoord": "263800",
        "ycoord": "284012",
        "Long": "-7.03157",
        "Lat": "53.8017",
        "note": "2"
    },
    "19202Q": {
        "Roll_No": "19202Q",
        "Off_Name": "DRUMKILLY NS",
        "County": "Cavan",
        "Ethos": "CATHOLIC",
        "xcoord": "243237",
        "ycoord": "293637",
        "Long": "-7.34232",
        "Lat": "53.8903",
        "note": "5"
    },
    "19285A": {
        "Roll_No": "19285A",
        "Off_Name": "KILL N S",
        "County": "Cavan",
        "Ethos": "CATHOLIC",
        "xcoord": "257828",
        "ycoord": "310006",
        "Long": "-7.11729",
        "Lat": "54.0359",
        "note": "5"
    },
    "19322D": {
        "Roll_No": "19322D",
        "Off_Name": "KILMORE CENTRAL N S",
        "County": "Cavan",
        "Ethos": "CHURCH OF IRELAND",
        "xcoord": "238064",
        "ycoord": "302676",
        "Long": "-7.41987",
        "Lat": "53.9719",
        "note": "1"
    },
    "19326L": {
        "Roll_No": "19326L",
        "Off_Name": "BUTLERSBRIDGE NS",
        "County": "Cavan",
        "Ethos": "CATHOLIC",
        "xcoord": "240920",
        "ycoord": "310927",
        "Long": "-7.37524",
        "Lat": "54.0458",
        "note": "6"
    },
    "19363R": {
        "Roll_No": "19363R",
        "Off_Name": "MULLAHORAN CENTRAL N S",
        "County": "Cavan",
        "Ethos": "CATHOLIC",
        "xcoord": "237295",
        "ycoord": "287887",
        "Long": "-7.43339",
        "Lat": "53.8391",
        "note": "1"
    },
    "19378H": {
        "Roll_No": "19378H",
        "Off_Name": "BALLYNARRY N S",
        "County": "Cavan",
        "Ethos": "CATHOLIC",
        "xcoord": "242963",
        "ycoord": "287741",
        "Long": "-7.34731",
        "Lat": "53.8374",
        "note": "5"
    },
    "19418Q": {
        "Roll_No": "19418Q",
        "Off_Name": "CASTLERAHAN CENTRAL NS",
        "County": "Cavan",
        "Ethos": "CATHOLIC",
        "xcoord": "254065",
        "ycoord": "286013",
        "Long": "-7.17897",
        "Lat": "53.8208",
        "note": "8"
    },
    "19432K": {
        "Roll_No": "19432K",
        "Off_Name": "CROSSKEYS CENTRAL N S",
        "County": "Cavan",
        "Ethos": "CATHOLIC",
        "xcoord": "248382",
        "ycoord": "296933",
        "Long": "-7.26354",
        "Lat": "53.9195",
        "note": "8"
    },
    "19527V": {
        "Roll_No": "19527V",
        "Off_Name": "CABRA CENTRAL N S",
        "County": "Cavan",
        "Ethos": "CHURCH OF IRELAND",
        "xcoord": "278127",
        "ycoord": "297437",
        "Long": "-6.81073",
        "Lat": "53.9204",
        "note": "0"
    },
    "19568M": {
        "Roll_No": "19568M",
        "Off_Name": "ST PATRICKS",
        "County": "Cavan",
        "Ethos": "CATHOLIC",
        "xcoord": "238996",
        "ycoord": "293077",
        "Long": "-7.40689",
        "Lat": "53.8856",
        "note": "2"
    },
    "19596R": {
        "Roll_No": "19596R",
        "Off_Name": "CROSSERLOUGH N S",
        "County": "Cavan",
        "Ethos": "CATHOLIC",
        "xcoord": "246884",
        "ycoord": "292072",
        "Long": "-7.28708",
        "Lat": "53.8759",
        "note": "9"
    },
    "19608V": {
        "Roll_No": "19608V",
        "Off_Name": "ST KILLIANS N S",
        "County": "Cavan",
        "Ethos": "CATHOLIC",
        "xcoord": "268884",
        "ycoord": "285304",
        "Long": "-6.95412",
        "Lat": "53.8127",
        "note": "3"
    },
    "19679V": {
        "Roll_No": "19679V",
        "Off_Name": "S N AODHAIN NAOFA",
        "County": "Cavan",
        "Ethos": "CATHOLIC",
        "xcoord": "221077",
        "ycoord": "318868",
        "Long": "-7.67764",
        "Lat": "54.1184",
        "note": "5"
    },
    "19871N": {
        "Roll_No": "19871N",
        "Off_Name": "ST PATRICKS N S",
        "County": "Cavan",
        "Ethos": "CATHOLIC",
        "xcoord": "205536",
        "ycoord": "337352",
        "Long": "-7.91499",
        "Lat": "54.2849",
        "note": "7"
    },
    "19921C": {
        "Roll_No": "19921C",
        "Off_Name": "DRUNG NO 2 NS",
        "County": "Cavan",
        "Ethos": "CHURCH OF IRELAND",
        "xcoord": "250303",
        "ycoord": "310718",
        "Long": "-7.23203",
        "Lat": "54.0431",
        "note": "5"
    },
    "19983B": {
        "Roll_No": "19983B",
        "Off_Name": "ST CLARES NS",
        "County": "Cavan",
        "Ethos": "CATHOLIC",
        "xcoord": "252725",
        "ycoord": "290999",
        "Long": "-7.19846",
        "Lat": "53.8657",
        "note": "2"
    },
    "20026G": {
        "Roll_No": "20026G",
        "Off_Name": "Gaelscoil Bhreifne",
        "County": "Cavan",
        "Ethos": "MULTI DENOMINATIONAL",
        "xcoord": "241656",
        "ycoord": "304884",
        "Long": "-7.36483",
        "Lat": "53.9915",
        "note": "3"
    },
    "20134J": {
        "Roll_No": "20134J",
        "Off_Name": "ST MICHAELS N. S.",
        "County": "Cavan",
        "Ethos": "CATHOLIC",
        "xcoord": "254140",
        "ycoord": "301451",
        "Long": "-7.1751",
        "Lat": "53.9595",
        "note": "5"
    },
    "20172R": {
        "Roll_No": "20172R",
        "Off_Name": "ST JOSEPHS N S",
        "County": "Cavan",
        "Ethos": "CATHOLIC",
        "xcoord": "278597",
        "ycoord": "295309",
        "Long": "-6.80412",
        "Lat": "53.9012",
        "note": "6"
    },
    "20277I": {
        "Roll_No": "20277I",
        "Off_Name": "St Michaels National School",
        "County": "Cavan",
        "Ethos": "CATHOLIC",
        "xcoord": "260627",
        "ycoord": "314280",
        "Long": "-7.07372",
        "Lat": "54.074",
        "note": "9"
    },
    "02439G": {
        "Roll_No": "02439G",
        "Off_Name": "S N MHUIRE",
        "County": "Clare",
        "Ethos": "CATHOLIC",
        "xcoord": "156382",
        "ycoord": "186087",
        "Long": "-8.64861",
        "Lat": "52.9239",
        "note": "1"
    },
    "03898U": {
        "Roll_No": "03898U",
        "Off_Name": "TOONAGH N S",
        "County": "Clare",
        "Ethos": "CATHOLIC",
        "xcoord": "130426",
        "ycoord": "182614",
        "Long": "-9.03379",
        "Lat": "52.8899",
        "note": "5"
    },
    "03928D": {
        "Roll_No": "03928D",
        "Off_Name": "MULLACH N S",
        "County": "Clare",
        "Ethos": "CATHOLIC",
        "xcoord": "104321",
        "ycoord": "172978",
        "Long": "-9.41874",
        "Lat": "52.7994",
        "note": "0"
    },
    "04548V": {
        "Roll_No": "04548V",
        "Off_Name": "SCOIL SEANAIN NAOFA",
        "County": "Clare",
        "Ethos": "CATHOLIC",
        "xcoord": "162600",
        "ycoord": "163750",
        "Long": "-8.5536",
        "Lat": "52.7236",
        "note": "1"
    },
    "04919H": {
        "Roll_No": "04919H",
        "Off_Name": "CRATLOE N S",
        "County": "Clare",
        "Ethos": "CATHOLIC",
        "xcoord": "148977",
        "ycoord": "161133",
        "Long": "-8.75482",
        "Lat": "52.699",
        "note": "3"
    },
    "05253H": {
        "Roll_No": "05253H",
        "Off_Name": "O CALLAGHANS MILLS N S",
        "County": "Clare",
        "Ethos": "CATHOLIC",
        "xcoord": "154753",
        "ycoord": "176784",
        "Long": "-8.67154",
        "Lat": "52.8402",
        "note": "0"
    },
    "07315N": {
        "Roll_No": "07315N",
        "Off_Name": "HOLY FAMILY SNR",
        "County": "Clare",
        "Ethos": "CATHOLIC",
        "xcoord": "133925",
        "ycoord": "177182",
        "Long": "-8.9807",
        "Lat": "52.8416",
        "note": "2"
    },
    "09390O": {
        "Roll_No": "09390O",
        "Off_Name": "ROCKMOUNT MIXED N S",
        "County": "Clare",
        "Ethos": "CATHOLIC",
        "xcoord": "109322",
        "ycoord": "180570",
        "Long": "-9.34671",
        "Lat": "52.8684",
        "note": "2"
    },
    "09425H": {
        "Roll_No": "09425H",
        "Off_Name": "RINEEN N S",
        "County": "Clare",
        "Ethos": "CATHOLIC",
        "xcoord": "106561",
        "ycoord": "183081",
        "Long": "-9.38842",
        "Lat": "52.8905",
        "note": "1"
    },
    "10568N": {
        "Roll_No": "10568N",
        "Off_Name": "S N CUIBHREANN",
        "County": "Clare",
        "Ethos": "CATHOLIC",
        "xcoord": "91974",
        "ycoord": "154947",
        "Long": "-9.59582",
        "Lat": "52.6351",
        "note": "9"
    },
    "10763L": {
        "Roll_No": "10763L",
        "Off_Name": "BOSTON N S",
        "County": "Clare",
        "Ethos": "CATHOLIC",
        "xcoord": "137472",
        "ycoord": "198241",
        "Long": "-8.93212",
        "Lat": "53.0312",
        "note": "0"
    },
    "10886E": {
        "Roll_No": "10886E",
        "Off_Name": "TUBBER N S",
        "County": "Clare",
        "Ethos": "CATHOLIC",
        "xcoord": "140007",
        "ycoord": "193609",
        "Long": "-8.89348",
        "Lat": "52.9899",
        "note": "7"
    },
    "11234M": {
        "Roll_No": "11234M",
        "Off_Name": "CLOHANBEG N S",
        "County": "Clare",
        "Ethos": "CATHOLIC",
        "xcoord": "106196",
        "ycoord": "168727",
        "Long": "-9.38973",
        "Lat": "52.7615",
        "note": "9"
    },
    "11714D": {
        "Roll_No": "11714D",
        "Off_Name": "BANSHA N S",
        "County": "Clare",
        "Ethos": "CATHOLIC",
        "xcoord": "92562",
        "ycoord": "161860",
        "Long": "-9.58939",
        "Lat": "52.6973",
        "note": "4"
    },
    "11765U": {
        "Roll_No": "11765U",
        "Off_Name": "DOONBEG N S",
        "County": "Clare",
        "Ethos": "CATHOLIC",
        "xcoord": "96773",
        "ycoord": "165537",
        "Long": "-9.52827",
        "Lat": "52.7311",
        "note": "5"
    },
    "11990E": {
        "Roll_No": "11990E",
        "Off_Name": "BODYKE N S",
        "County": "Clare",
        "Ethos": "CATHOLIC",
        "xcoord": "159867",
        "ycoord": "181450",
        "Long": "-8.59622",
        "Lat": "52.8825",
        "note": "3"
    },
    "12633I": {
        "Roll_No": "12633I",
        "Off_Name": "COOLMEEN N S",
        "County": "Clare",
        "Ethos": "CATHOLIC",
        "xcoord": "117983",
        "ycoord": "157176",
        "Long": "-9.21226",
        "Lat": "52.6596",
        "note": "2"
    },
    "12848G": {
        "Roll_No": "12848G",
        "Off_Name": "DOONAHA N S",
        "County": "Clare",
        "Ethos": "CATHOLIC",
        "xcoord": "88457",
        "ycoord": "153667",
        "Long": "-9.64732",
        "Lat": "52.6228",
        "note": "5"
    },
    "13379C": {
        "Roll_No": "13379C",
        "Off_Name": "S N PADRAIG NFA FANOIR",
        "County": "Clare",
        "Ethos": "CATHOLIC",
        "xcoord": "114077",
        "ycoord": "208117",
        "Long": "-9.28343",
        "Lat": "53.1167",
        "note": "1"
    },
    "13418J": {
        "Roll_No": "13418J",
        "Off_Name": "BALLYEA MIXED N S",
        "County": "Clare",
        "Ethos": "CATHOLIC",
        "xcoord": "130579",
        "ycoord": "170758",
        "Long": "-9.02899",
        "Lat": "52.7834",
        "note": "0"
    },
    "13478E": {
        "Roll_No": "13478E",
        "Off_Name": "DROIMDIOGACH N S",
        "County": "Clare",
        "Ethos": "CATHOLIC",
        "xcoord": "111316",
        "ycoord": "157681",
        "Long": "-9.31091",
        "Lat": "52.6631",
        "note": "4"
    },
    "13625O": {
        "Roll_No": "13625O",
        "Off_Name": "KILNAMONA N S",
        "County": "Clare",
        "Ethos": "CATHOLIC",
        "xcoord": "127416",
        "ycoord": "180168",
        "Long": "-9.07796",
        "Lat": "52.8676",
        "note": "2"
    },
    "13730L": {
        "Roll_No": "13730L",
        "Off_Name": "CLOHANES N S",
        "County": "Clare",
        "Ethos": "CATHOLIC",
        "xcoord": "100424",
        "ycoord": "169538",
        "Long": "-9.47546",
        "Lat": "52.7678",
        "note": "5"
    },
    "13738E": {
        "Roll_No": "13738E",
        "Off_Name": "BURRANE N S",
        "County": "Clare",
        "Ethos": "CATHOLIC",
        "xcoord": "108057",
        "ycoord": "153546",
        "Long": "-9.35792",
        "Lat": "52.6254",
        "note": "2"
    },
    "13804O": {
        "Roll_No": "13804O",
        "Off_Name": "S N NA CRANNAIGHE",
        "County": "Clare",
        "Ethos": "CATHOLIC",
        "xcoord": "117269",
        "ycoord": "160895",
        "Long": "-9.22375",
        "Lat": "52.6929",
        "note": "0"
    },
    "13826B": {
        "Roll_No": "13826B",
        "Off_Name": "KILMIHIL N.S.",
        "County": "Clare",
        "Ethos": "CATHOLIC",
        "xcoord": "110920",
        "ycoord": "164290",
        "Long": "-9.31855",
        "Lat": "52.7224",
        "note": "6"
    },
    "13870E": {
        "Roll_No": "13870E",
        "Off_Name": "KILKISHEN N S",
        "County": "Clare",
        "Ethos": "CATHOLIC",
        "xcoord": "149964",
        "ycoord": "172877",
        "Long": "-8.74201",
        "Lat": "52.8046",
        "note": "4"
    },
    "13876Q": {
        "Roll_No": "13876Q",
        "Off_Name": "MOVEEN N S",
        "County": "Clare",
        "Ethos": "CATHOLIC",
        "xcoord": "86047",
        "ycoord": "155978",
        "Long": "-9.68369",
        "Lat": "52.6431",
        "note": "2"
    },
    "13942D": {
        "Roll_No": "13942D",
        "Off_Name": "S N CILL MUIRE",
        "County": "Clare",
        "Ethos": "CATHOLIC",
        "xcoord": "147218",
        "ycoord": "169951",
        "Long": "-8.78226",
        "Lat": "52.7781",
        "note": "8"
    },
    "14111L": {
        "Roll_No": "14111L",
        "Off_Name": "CROSS N S",
        "County": "Clare",
        "Ethos": "CATHOLIC",
        "xcoord": "79757",
        "ycoord": "151179",
        "Long": "-9.77484",
        "Lat": "52.5986",
        "note": "8"
    },
    "14468G": {
        "Roll_No": "14468G",
        "Off_Name": "KILMALEY N S",
        "County": "Clare",
        "Ethos": "CATHOLIC",
        "xcoord": "125218",
        "ycoord": "174911",
        "Long": "-9.10939",
        "Lat": "52.82",
        "note": "0"
    },
    "14571W": {
        "Roll_No": "14571W",
        "Off_Name": "TOMGRANEY N S",
        "County": "Clare",
        "Ethos": "CATHOLIC",
        "xcoord": "163627",
        "ycoord": "183100",
        "Long": "-8.54055",
        "Lat": "52.8976",
        "note": "8"
    },
    "14622N": {
        "Roll_No": "14622N",
        "Off_Name": "EIDHNEACH N S",
        "County": "Clare",
        "Ethos": "CATHOLIC",
        "xcoord": "120664",
        "ycoord": "181338",
        "Long": "-9.17849",
        "Lat": "52.8771",
        "note": "0"
    },
    "14757N": {
        "Roll_No": "14757N",
        "Off_Name": "S N MHAINISTIR CHUINCHE",
        "County": "Clare",
        "Ethos": "CATHOLIC",
        "xcoord": "142024",
        "ycoord": "174341",
        "Long": "-8.86001",
        "Lat": "52.817",
        "note": "5"
    },
    "14830U": {
        "Roll_No": "14830U",
        "Off_Name": "BAREFIELD MIXED N S",
        "County": "Clare",
        "Ethos": "CATHOLIC",
        "xcoord": "136518",
        "ycoord": "182572",
        "Long": "-8.94327",
        "Lat": "52.8903",
        "note": "2"
    },
    "15042A": {
        "Roll_No": "15042A",
        "Off_Name": "ENNIS N S",
        "County": "Clare",
        "Ethos": "CATHOLIC",
        "xcoord": "133520",
        "ycoord": "177128",
        "Long": "-8.9867",
        "Lat": "52.841",
        "note": "7"
    },
    "15221A": {
        "Roll_No": "15221A",
        "Off_Name": "ANNAGH N S",
        "County": "Clare",
        "Ethos": "CATHOLIC",
        "xcoord": "104696",
        "ycoord": "175463",
        "Long": "-9.4139",
        "Lat": "52.8218",
        "note": "1"
    },
    "15279I": {
        "Roll_No": "15279I",
        "Off_Name": "CLOONEY N S",
        "County": "Clare",
        "Ethos": "CATHOLIC",
        "xcoord": "142037",
        "ycoord": "180339",
        "Long": "-8.86088",
        "Lat": "52.8709",
        "note": "4"
    },
    "15301V": {
        "Roll_No": "15301V",
        "Off_Name": "KILDYSART N S",
        "County": "Clare",
        "Ethos": "CATHOLIC",
        "xcoord": "125446",
        "ycoord": "159060",
        "Long": "-9.1024",
        "Lat": "52.6776",
        "note": "9"
    },
    "15350L": {
        "Roll_No": "15350L",
        "Off_Name": "STONEHALL N S",
        "County": "Clare",
        "Ethos": "CATHOLIC",
        "xcoord": "138560",
        "ycoord": "164136",
        "Long": "-8.90947",
        "Lat": "52.7249",
        "note": "6"
    },
    "15370R": {
        "Roll_No": "15370R",
        "Off_Name": "KILLALOE BOYS N S",
        "County": "Clare",
        "Ethos": "CATHOLIC",
        "xcoord": "170056",
        "ycoord": "172640",
        "Long": "-8.44405",
        "Lat": "52.804",
        "note": "6"
    },
    "15408Q": {
        "Roll_No": "15408Q",
        "Off_Name": "CONNOLLY N S",
        "County": "Clare",
        "Ethos": "CATHOLIC",
        "xcoord": "120460",
        "ycoord": "176113",
        "Long": "-9.18025",
        "Lat": "52.8302",
        "note": "8"
    },
    "15981A": {
        "Roll_No": "15981A",
        "Off_Name": "LAKYLE N S",
        "County": "Clare",
        "Ethos": "CATHOLIC",
        "xcoord": "175710",
        "ycoord": "189185",
        "Long": "-8.36144",
        "Lat": "52.9529",
        "note": "6"
    },
    "16186G": {
        "Roll_No": "16186G",
        "Off_Name": "INCH N S",
        "County": "Clare",
        "Ethos": "CATHOLIC",
        "xcoord": "128691",
        "ycoord": "175123",
        "Long": "-9.05792",
        "Lat": "52.8224",
        "note": "9"
    },
    "16677C": {
        "Roll_No": "16677C",
        "Off_Name": "BUNSCOIL NA MBRAITHRE",
        "County": "Clare",
        "Ethos": "CATHOLIC",
        "xcoord": "134191",
        "ycoord": "177899",
        "Long": "-8.9769",
        "Lat": "52.8481",
        "note": "6"
    },
    "16908S": {
        "Roll_No": "16908S",
        "Off_Name": "SIXMILEBRIDGE N S",
        "County": "Clare",
        "Ethos": "CATHOLIC",
        "xcoord": "147472",
        "ycoord": "166073",
        "Long": "-8.77787",
        "Lat": "52.7432",
        "note": "5"
    },
    "16930L": {
        "Roll_No": "16930L",
        "Off_Name": "SCOIL AN SRAITH  S N",
        "County": "Clare",
        "Ethos": "CATHOLIC",
        "xcoord": "99067",
        "ycoord": "162414",
        "Long": "-9.49337",
        "Lat": "52.7035",
        "note": "7"
    },
    "16946D": {
        "Roll_No": "16946D",
        "Off_Name": "SN AN PHAIRTIN MIXED",
        "County": "Clare",
        "Ethos": "CATHOLIC",
        "xcoord": "158470",
        "ycoord": "160579",
        "Long": "-8.61432",
        "Lat": "52.6948",
        "note": "2"
    },
    "17020A": {
        "Roll_No": "17020A",
        "Off_Name": "QUILTY NS",
        "County": "Clare",
        "Ethos": "CATHOLIC",
        "xcoord": "101958",
        "ycoord": "174237",
        "Long": "-9.45414",
        "Lat": "52.8103",
        "note": "3"
    },
    "17026M": {
        "Roll_No": "17026M",
        "Off_Name": "CLARECASTLE NATIONAL SCHOOL",
        "County": "Clare",
        "Ethos": "CATHOLIC",
        "xcoord": "134620",
        "ycoord": "174409",
        "Long": "-8.96983",
        "Lat": "52.8167",
        "note": "8"
    },
    "17246D": {
        "Roll_No": "17246D",
        "Off_Name": "S N CLUAIN AN ATHA",
        "County": "Clare",
        "Ethos": "CATHOLIC",
        "xcoord": "114292",
        "ycoord": "180363",
        "Long": "-9.27287",
        "Lat": "52.8674",
        "note": "9"
    },
    "17270A": {
        "Roll_No": "17270A",
        "Off_Name": "S N COLM CILLE",
        "County": "Clare",
        "Ethos": "CATHOLIC",
        "xcoord": "117387",
        "ycoord": "187493",
        "Long": "-9.22872",
        "Lat": "52.9319",
        "note": "7"
    },
    "17517I": {
        "Roll_No": "17517I",
        "Off_Name": "DOOLIN MIXED N S",
        "County": "Clare",
        "Ethos": "CATHOLIC",
        "xcoord": "107975",
        "ycoord": "196670",
        "Long": "-9.37128",
        "Lat": "53.0129",
        "note": "3"
    },
    "17563P": {
        "Roll_No": "17563P",
        "Off_Name": "OGONNELLOE NATIONAL SCHOOL",
        "County": "Clare",
        "Ethos": "CATHOLIC",
        "xcoord": "169181",
        "ycoord": "180208",
        "Long": "-8.45774",
        "Lat": "52.8719",
        "note": "4"
    },
    "17583V": {
        "Roll_No": "17583V",
        "Off_Name": "S N CNOC AN EIN",
        "County": "Clare",
        "Ethos": "CATHOLIC",
        "xcoord": "137487",
        "ycoord": "178553",
        "Long": "-8.9281",
        "Lat": "52.8543",
        "note": "4"
    },
    "17633K": {
        "Roll_No": "17633K",
        "Off_Name": "S N EOIN BAISTE",
        "County": "Clare",
        "Ethos": "CATHOLIC",
        "xcoord": "122761",
        "ycoord": "207661",
        "Long": "-9.15364",
        "Lat": "53.1139",
        "note": "5"
    },
    "17687K": {
        "Roll_No": "17687K",
        "Off_Name": "S N TULACH CRUINN",
        "County": "Clare",
        "Ethos": "CATHOLIC",
        "xcoord": "108683",
        "ycoord": "160790",
        "Long": "-9.35069",
        "Lat": "52.6906",
        "note": "8"
    },
    "17801F": {
        "Roll_No": "17801F",
        "Off_Name": "S N NA MAIGHDINE MUIRE",
        "County": "Clare",
        "Ethos": "CATHOLIC",
        "xcoord": "157370",
        "ycoord": "172678",
        "Long": "-8.63217",
        "Lat": "52.8035",
        "note": "6"
    },
    "17816S": {
        "Roll_No": "17816S",
        "Off_Name": "COORACLARE B N S",
        "County": "Clare",
        "Ethos": "CATHOLIC",
        "xcoord": "103970",
        "ycoord": "162497",
        "Long": "-9.42087",
        "Lat": "52.7051",
        "note": "0"
    },
    "17832Q": {
        "Roll_No": "17832Q",
        "Off_Name": "KILNABOY N S",
        "County": "Clare",
        "Ethos": "CATHOLIC",
        "xcoord": "127533",
        "ycoord": "191776",
        "Long": "-9.07881",
        "Lat": "52.9719",
        "note": "6"
    },
    "17847G": {
        "Roll_No": "17847G",
        "Off_Name": "S N AIBHISTIN NAOFA",
        "County": "Clare",
        "Ethos": "CATHOLIC",
        "xcoord": "112662",
        "ycoord": "193284",
        "Long": "-9.30054",
        "Lat": "52.9832",
        "note": "4"
    },
    "17898A": {
        "Roll_No": "17898A",
        "Off_Name": "S N IOSEP NAOFA",
        "County": "Clare",
        "Ethos": "CATHOLIC",
        "xcoord": "161880",
        "ycoord": "172745",
        "Long": "-8.5653",
        "Lat": "52.8044",
        "note": "3"
    },
    "17957N": {
        "Roll_No": "17957N",
        "Off_Name": "ENNIS CONVENT INF N S",
        "County": "Clare",
        "Ethos": "CATHOLIC",
        "xcoord": "133938",
        "ycoord": "177253",
        "Long": "-8.98052",
        "Lat": "52.8422",
        "note": "7"
    },
    "18032M": {
        "Roll_No": "18032M",
        "Off_Name": "S N CLUAIN MUINGE",
        "County": "Clare",
        "Ethos": "CATHOLIC",
        "xcoord": "143532",
        "ycoord": "163113",
        "Long": "-8.83571",
        "Lat": "52.7162",
        "note": "6"
    },
    "18109V": {
        "Roll_No": "18109V",
        "Off_Name": "S N INIS CEALTRACH",
        "County": "Clare",
        "Ethos": "CATHOLIC",
        "xcoord": "170355",
        "ycoord": "186944",
        "Long": "-8.44092",
        "Lat": "52.9325",
        "note": "9"
    },
    "18168O": {
        "Roll_No": "18168O",
        "Off_Name": "S N AN CHRIOCH",
        "County": "Clare",
        "Ethos": "CATHOLIC",
        "xcoord": "103421",
        "ycoord": "167136",
        "Long": "-9.43036",
        "Lat": "52.7467",
        "note": "4"
    },
    "18190H": {
        "Roll_No": "18190H",
        "Off_Name": "S N CRONAIN NFA AN CARN",
        "County": "Clare",
        "Ethos": "CATHOLIC",
        "xcoord": "127927",
        "ycoord": "199076",
        "Long": "-9.07457",
        "Lat": "53.0375",
        "note": "0"
    },
    "18225A": {
        "Roll_No": "18225A",
        "Off_Name": "S N MHUIRE MILIUC",
        "County": "Clare",
        "Ethos": "CATHOLIC",
        "xcoord": "154483",
        "ycoord": "160813",
        "Long": "-8.67333",
        "Lat": "52.6966",
        "note": "3"
    },
    "18227E": {
        "Roll_No": "18227E",
        "Off_Name": "SCOIL MHUIRE NAISIUNTA",
        "County": "Clare",
        "Ethos": "CATHOLIC",
        "xcoord": "128880",
        "ycoord": "188753",
        "Long": "-9.0581",
        "Lat": "52.9449",
        "note": "1"
    },
    "18327I": {
        "Roll_No": "18327I",
        "Off_Name": "S N CNOC DOIRE",
        "County": "Clare",
        "Ethos": "CATHOLIC",
        "xcoord": "105562",
        "ycoord": "156861",
        "Long": "-9.39571",
        "Lat": "52.6548",
        "note": "9"
    },
    "18339P": {
        "Roll_No": "18339P",
        "Off_Name": "SN IOSEF NAOFA",
        "County": "Clare",
        "Ethos": "CATHOLIC",
        "xcoord": "110421",
        "ycoord": "184191",
        "Long": "-9.33139",
        "Lat": "52.9012",
        "note": "5"
    },
    "18359V": {
        "Roll_No": "18359V",
        "Off_Name": "S N CUAN",
        "County": "Clare",
        "Ethos": "CATHOLIC",
        "xcoord": "73562",
        "ycoord": "148800",
        "Long": "-9.86532",
        "Lat": "52.5759",
        "note": "4"
    },
    "18410S": {
        "Roll_No": "18410S",
        "Off_Name": "S N LIOSCEANUIR",
        "County": "Clare",
        "Ethos": "CATHOLIC",
        "xcoord": "106244",
        "ycoord": "188084",
        "Long": "-9.39458",
        "Lat": "52.9354",
        "note": "2"
    },
    "18467B": {
        "Roll_No": "18467B",
        "Off_Name": "S N BAILE AN DROICHID",
        "County": "Clare",
        "Ethos": "CATHOLIC",
        "xcoord": "164632",
        "ycoord": "167918",
        "Long": "-8.52397",
        "Lat": "52.7612",
        "note": "1"
    },
    "18526O": {
        "Roll_No": "18526O",
        "Off_Name": "BALLYCAR N S",
        "County": "Clare",
        "Ethos": "CATHOLIC",
        "xcoord": "142462",
        "ycoord": "168883",
        "Long": "-8.85255",
        "Lat": "52.768",
        "note": "1"
    },
    "18540I": {
        "Roll_No": "18540I",
        "Off_Name": "CLUAIN DRAIGNEACH",
        "County": "Clare",
        "Ethos": "CATHOLIC",
        "xcoord": "124466",
        "ycoord": "165216",
        "Long": "-9.11831",
        "Lat": "52.7328",
        "note": "3"
    },
    "18541K": {
        "Roll_No": "18541K",
        "Off_Name": "S N CATHAIR AODHA",
        "County": "Clare",
        "Ethos": "CATHOLIC",
        "xcoord": "125733",
        "ycoord": "168932",
        "Long": "-9.10039",
        "Lat": "52.7664",
        "note": "5"
    },
    "18555V": {
        "Roll_No": "18555V",
        "Off_Name": "LISSYCASEY N S",
        "County": "Clare",
        "Ethos": "CATHOLIC",
        "xcoord": "120550",
        "ycoord": "165858",
        "Long": "-9.17643",
        "Lat": "52.738",
        "note": "3"
    },
    "18565B": {
        "Roll_No": "18565B",
        "Off_Name": "S N MA SHEASTA",
        "County": "Clare",
        "Ethos": "CATHOLIC",
        "xcoord": "95904",
        "ycoord": "158761",
        "Long": "-9.53899",
        "Lat": "52.6701",
        "note": "9"
    },
    "18624O": {
        "Roll_No": "18624O",
        "Off_Name": "MERCY CONVENT KILLALOE",
        "County": "Clare",
        "Ethos": "CATHOLIC",
        "xcoord": "170299",
        "ycoord": "172842",
        "Long": "-8.44046",
        "Lat": "52.8058",
        "note": "9"
    },
    "18630J": {
        "Roll_No": "18630J",
        "Off_Name": "CARRIGAHOLT MIXED N S",
        "County": "Clare",
        "Ethos": "CATHOLIC",
        "xcoord": "84278",
        "ycoord": "151490",
        "Long": "-9.70825",
        "Lat": "52.6024",
        "note": "4"
    },
    "18639E": {
        "Roll_No": "18639E",
        "Off_Name": "S N BAILE NA CAILLI",
        "County": "Clare",
        "Ethos": "CATHOLIC",
        "xcoord": "128064",
        "ycoord": "163581",
        "Long": "-9.06469",
        "Lat": "52.7186",
        "note": "3"
    },
    "18696Q": {
        "Roll_No": "18696Q",
        "Off_Name": "S N DUBH RATH",
        "County": "Clare",
        "Ethos": "CATHOLIC",
        "xcoord": "138485",
        "ycoord": "174664",
        "Long": "-8.91256",
        "Lat": "52.8195",
        "note": "0"
    },
    "18720K": {
        "Roll_No": "18720K",
        "Off_Name": "MILTOWN MALBAY B N S",
        "County": "Clare",
        "Ethos": "CATHOLIC",
        "xcoord": "105559",
        "ycoord": "178905",
        "Long": "-9.4021",
        "Lat": "52.8528",
        "note": "6"
    },
    "18739I": {
        "Roll_No": "18739I",
        "Off_Name": "SHANNON AIRPORT 1 N S",
        "County": "Clare",
        "Ethos": "CATHOLIC",
        "xcoord": "139860",
        "ycoord": "161243",
        "Long": "-8.8897",
        "Lat": "52.699",
        "note": "9"
    },
    "18740Q": {
        "Roll_No": "18740Q",
        "Off_Name": "SHANNON AIRPORT NO 2 NS",
        "County": "Clare",
        "Ethos": "CHURCH OF IRELAND",
        "xcoord": "139547",
        "ycoord": "161329",
        "Long": "-8.89435",
        "Lat": "52.6998",
        "note": "6"
    },
    "18753C": {
        "Roll_No": "18753C",
        "Off_Name": "SAINT MARYS N S LAHINCH",
        "County": "Clare",
        "Ethos": "CATHOLIC",
        "xcoord": "109612",
        "ycoord": "187289",
        "Long": "-9.34427",
        "Lat": "52.9289",
        "note": "8"
    },
    "18768P": {
        "Roll_No": "18768P",
        "Off_Name": "FORGLEANN N S",
        "County": "Clare",
        "Ethos": "CATHOLIC",
        "xcoord": "114295",
        "ycoord": "184855",
        "Long": "-9.274",
        "Lat": "52.9078",
        "note": "5"
    },
    "18846J": {
        "Roll_No": "18846J",
        "Off_Name": "AN DAINGIN",
        "County": "Clare",
        "Ethos": "CATHOLIC",
        "xcoord": "146166",
        "ycoord": "175434",
        "Long": "-8.79875",
        "Lat": "52.8272",
        "note": "1"
    },
    "18950E": {
        "Roll_No": "18950E",
        "Off_Name": "Dromindoora N.S.",
        "County": "Clare",
        "Ethos": "CATHOLIC",
        "xcoord": "151620",
        "ycoord": "194286",
        "Long": "-8.72064",
        "Lat": "52.9972",
        "note": "2"
    },
    "19043W": {
        "Roll_No": "19043W",
        "Off_Name": "NEW QUAY NS",
        "County": "Clare",
        "Ethos": "CATHOLIC",
        "xcoord": "127860",
        "ycoord": "211093",
        "Long": "-9.07827",
        "Lat": "53.1455",
        "note": "7"
    },
    "19274S": {
        "Roll_No": "19274S",
        "Off_Name": "ST CONAIRES NS",
        "County": "Clare",
        "Ethos": "CATHOLIC",
        "xcoord": "141205",
        "ycoord": "161984",
        "Long": "-8.86994",
        "Lat": "52.7059",
        "note": "5"
    },
    "19338S": {
        "Roll_No": "19338S",
        "Off_Name": "FLAGMOUNT CENTRAL NS",
        "County": "Clare",
        "Ethos": "CATHOLIC",
        "xcoord": "156691",
        "ycoord": "192991",
        "Long": "-8.64494",
        "Lat": "52.986",
        "note": "2"
    },
    "19366A": {
        "Roll_No": "19366A",
        "Off_Name": "SCARIFF CENTRAL N S",
        "County": "Clare",
        "Ethos": "CATHOLIC",
        "xcoord": "164280",
        "ycoord": "185114",
        "Long": "-8.53106",
        "Lat": "52.9157",
        "note": "5"
    },
    "19386G": {
        "Roll_No": "19386G",
        "Off_Name": "LABASHEEDA CENTRAL N S",
        "County": "Clare",
        "Ethos": "CATHOLIC",
        "xcoord": "115202",
        "ycoord": "152986",
        "Long": "-9.25228",
        "Lat": "52.6216",
        "note": "5"
    },
    "19442N": {
        "Roll_No": "19442N",
        "Off_Name": "RUAN CENTRAL NS",
        "County": "Clare",
        "Ethos": "CATHOLIC",
        "xcoord": "133569",
        "ycoord": "187411",
        "Long": "-8.98807",
        "Lat": "52.9334",
        "note": "4"
    },
    "19551S": {
        "Roll_No": "19551S",
        "Off_Name": "INCHICRONAN CENTRAL NS",
        "County": "Clare",
        "Ethos": "CATHOLIC",
        "xcoord": "139943",
        "ycoord": "187584",
        "Long": "-8.89331",
        "Lat": "52.9358",
        "note": "5"
    },
    "19552U": {
        "Roll_No": "19552U",
        "Off_Name": "NAOMH TOLA",
        "County": "Clare",
        "Ethos": "CATHOLIC",
        "xcoord": "140154",
        "ycoord": "161731",
        "Long": "-8.88544",
        "Lat": "52.7035",
        "note": "5"
    },
    "19559L": {
        "Roll_No": "19559L",
        "Off_Name": "CHRIOST RI",
        "County": "Clare",
        "Ethos": "CATHOLIC",
        "xcoord": "133158",
        "ycoord": "177849",
        "Long": "-8.99222",
        "Lat": "52.8475",
        "note": "9"
    },
    "19698C": {
        "Roll_No": "19698C",
        "Off_Name": "ST AIDANS NS",
        "County": "Clare",
        "Ethos": "CATHOLIC",
        "xcoord": "141646",
        "ycoord": "162532",
        "Long": "-8.86351",
        "Lat": "52.7108",
        "note": "4"
    },
    "19700J": {
        "Roll_No": "19700J",
        "Off_Name": "LISDOONVARNA N S",
        "County": "Clare",
        "Ethos": "CATHOLIC",
        "xcoord": "113588",
        "ycoord": "198564",
        "Long": "-9.28817",
        "Lat": "53.0308",
        "note": "6"
    },
    "19838P": {
        "Roll_No": "19838P",
        "Off_Name": "GAEL SC MHICHIL CHIOSOG",
        "County": "Clare",
        "Ethos": "CATHOLIC",
        "xcoord": "133978",
        "ycoord": "178742",
        "Long": "-8.98023",
        "Lat": "52.8556",
        "note": "9"
    },
    "19849U": {
        "Roll_No": "19849U",
        "Off_Name": "GAELSCOIL DONNCHA RUA",
        "County": "Clare",
        "Ethos": "CATHOLIC",
        "xcoord": "140810",
        "ycoord": "161932",
        "Long": "-8.87577",
        "Lat": "52.7053",
        "note": "8"
    },
    "19999Q": {
        "Roll_No": "19999Q",
        "Off_Name": "GAELSCOIL UI CHOIMIN",
        "County": "Clare",
        "Ethos": "CATHOLIC",
        "xcoord": "99442",
        "ycoord": "155320",
        "Long": "-9.48565",
        "Lat": "52.6398",
        "note": "5"
    },
    "20041C": {
        "Roll_No": "20041C",
        "Off_Name": "CONVENT OF MERCY NATIONAL SCHOOL",
        "County": "Clare",
        "Ethos": "CATHOLIC",
        "xcoord": "99377",
        "ycoord": "155305",
        "Long": "-9.48661",
        "Lat": "52.6397",
        "note": "5"
    },
    "20075T": {
        "Roll_No": "20075T",
        "Off_Name": "ST MOCHULLAS N.S.",
        "County": "Clare",
        "Ethos": "CATHOLIC",
        "xcoord": "148739",
        "ycoord": "179880",
        "Long": "-8.76128",
        "Lat": "52.8674",
        "note": "8"
    },
    "20078C": {
        "Roll_No": "20078C",
        "Off_Name": "SN REALT NA MARA",
        "County": "Clare",
        "Ethos": "CATHOLIC",
        "xcoord": "88674",
        "ycoord": "159839",
        "Long": "-9.6462",
        "Lat": "52.6783",
        "note": "3"
    },
    "20086B": {
        "Roll_No": "20086B",
        "Off_Name": "ENNIS EDUCATE TOGETHER NS",
        "County": "Clare",
        "Ethos": "MULTI DENOMINATIONAL",
        "xcoord": "133831",
        "ycoord": "179109",
        "Long": "-8.98249",
        "Lat": "52.8589",
        "note": "6"
    },
    "20127M": {
        "Roll_No": "20127M",
        "Off_Name": "SCOIL NA MAIGHDINE MHUIRE",
        "County": "Clare",
        "Ethos": "CATHOLIC",
        "xcoord": "139472",
        "ycoord": "168372",
        "Long": "-8.89675",
        "Lat": "52.7631",
        "note": "0"
    },
    "20149W": {
        "Roll_No": "20149W",
        "Off_Name": "ST FACHNAN & ST ATTRACTAS N S",
        "County": "Clare",
        "Ethos": "CATHOLIC",
        "xcoord": "118039",
        "ycoord": "193875",
        "Long": "-9.22064",
        "Lat": "52.9894",
        "note": "2"
    },
    "20245S": {
        "Roll_No": "20245S",
        "Off_Name": "Ennistymon National School",
        "County": "Clare",
        "Ethos": "CATHOLIC",
        "xcoord": "112753",
        "ycoord": "188272",
        "Long": "-9.29784",
        "Lat": "52.9382",
        "note": "1"
    },
    "20312H": {
        "Roll_No": "20312H",
        "Off_Name": "Raheen Wood Steiner School",
        "County": "Clare",
        "Ethos": "MULTI DENOMINATIONAL",
        "xcoord": "164982",
        "ycoord": "182513",
        "Long": "-8.52035",
        "Lat": "52.8924",
        "note": "7"
    },
    "20313J": {
        "Roll_No": "20313J",
        "Off_Name": "Mol an Oige",
        "County": "Clare",
        "Ethos": "MULTI DENOMINATIONAL",
        "xcoord": "112731",
        "ycoord": "187932",
        "Long": "-9.29807",
        "Lat": "52.9351",
        "note": "7"
    },
    "20404M": {
        "Roll_No": "20404M",
        "Off_Name": "Coore National School",
        "County": "Clare",
        "Ethos": "CATHOLIC",
        "xcoord": "103970",
        "ycoord": "162497",
        "Long": "-9.42087",
        "Lat": "52.7051",
        "note": "3"
    },
    "20434V": {
        "Roll_No": "20434V",
        "Off_Name": "Scoil Mhichil",
        "County": "Clare",
        "Ethos": "CATHOLIC",
        "xcoord": "109607.51",
        "ycoord": "167539.95",
        "Long": "-9.33887",
        "Lat": "52.7514",
        "note": "7"
    },
    "01197D": {
        "Roll_No": "01197D",
        "Off_Name": "STRAWBERRY HILL B N S",
        "County": "Cork",
        "Ethos": "CATHOLIC",
        "xcoord": "165606",
        "ycoord": "72135",
        "Long": "-8.49974",
        "Lat": "51.9005",
        "note": "5"
    },
    "02707F": {
        "Roll_No": "02707F",
        "Off_Name": "SUNDAYS WELL G N S",
        "County": "Cork",
        "Ethos": "CATHOLIC",
        "xcoord": "165572",
        "ycoord": "72134",
        "Long": "-8.50024",
        "Lat": "51.9004",
        "note": "3"
    },
    "05940D": {
        "Roll_No": "05940D",
        "Off_Name": "SCOIL URSULA",
        "County": "Cork",
        "Ethos": "CATHOLIC",
        "xcoord": "171543",
        "ycoord": "71548",
        "Long": "-8.41343",
        "Lat": "51.8955",
        "note": "2"
    },
    "12203G": {
        "Roll_No": "12203G",
        "Off_Name": "S N NAOMH ANTAINE",
        "County": "Cork",
        "Ethos": "CATHOLIC",
        "xcoord": "169211",
        "ycoord": "70701",
        "Long": "-8.44724",
        "Lat": "51.8878",
        "note": "4"
    },
    "12473M": {
        "Roll_No": "12473M",
        "Off_Name": "GREENMOUNT MONASTERY NS",
        "County": "Cork",
        "Ethos": "CATHOLIC",
        "xcoord": "166982",
        "ycoord": "71056",
        "Long": "-8.47965",
        "Lat": "51.8908",
        "note": "5"
    },
    "13648D": {
        "Roll_No": "13648D",
        "Off_Name": "ST LUKES MXD N S",
        "County": "Cork",
        "Ethos": "CHURCH OF IRELAND",
        "xcoord": "168626",
        "ycoord": "72465",
        "Long": "-8.45589",
        "Lat": "51.9036",
        "note": "7"
    },
    "13696O": {
        "Roll_No": "13696O",
        "Off_Name": "ST VINCENTS CONVENT N S",
        "County": "Cork",
        "Ethos": "CATHOLIC",
        "xcoord": "167016",
        "ycoord": "72685",
        "Long": "-8.47931",
        "Lat": "51.9055",
        "note": "1"
    },
    "13980L": {
        "Roll_No": "13980L",
        "Off_Name": "S N B TOGHER CORK",
        "County": "Cork",
        "Ethos": "CATHOLIC",
        "xcoord": "165859",
        "ycoord": "69164",
        "Long": "-8.49577",
        "Lat": "51.8738",
        "note": "7"
    },
    "14000C": {
        "Roll_No": "14000C",
        "Off_Name": "SCOIL NAOMH MHUIRE",
        "County": "Cork",
        "Ethos": "CATHOLIC",
        "xcoord": "166953",
        "ycoord": "71476",
        "Long": "-8.48011",
        "Lat": "51.8946",
        "note": "5"
    },
    "14198D": {
        "Roll_No": "14198D",
        "Off_Name": "NAOMH EOIN EASPAL",
        "County": "Cork",
        "Ethos": "CATHOLIC",
        "xcoord": "170341",
        "ycoord": "73639",
        "Long": "-8.43108",
        "Lat": "51.9142",
        "note": "1"
    },
    "15781P": {
        "Roll_No": "15781P",
        "Off_Name": "BALLINTEMPLE N S",
        "County": "Cork",
        "Ethos": "CATHOLIC",
        "xcoord": "169782",
        "ycoord": "71248",
        "Long": "-8.43899",
        "Lat": "51.8927",
        "note": "3"
    },
    "16339F": {
        "Roll_No": "16339F",
        "Off_Name": "S N IOSEF NAOFA",
        "County": "Cork",
        "Ethos": "CATHOLIC",
        "xcoord": "166504",
        "ycoord": "71694",
        "Long": "-8.48665",
        "Lat": "51.8965",
        "note": "4"
    },
    "16680O": {
        "Roll_No": "16680O",
        "Off_Name": "SCOIL COLMCILLE",
        "County": "Cork",
        "Ethos": "CATHOLIC",
        "xcoord": "166795",
        "ycoord": "72191",
        "Long": "-8.48247",
        "Lat": "51.901",
        "note": "7"
    },
    "17024I": {
        "Roll_No": "17024I",
        "Off_Name": "SCOIL NA CROISE NAOFA",
        "County": "Cork",
        "Ethos": "CATHOLIC",
        "xcoord": "172376",
        "ycoord": "71369",
        "Long": "-8.40132",
        "Lat": "51.8939",
        "note": "7"
    },
    "17045Q": {
        "Roll_No": "17045Q",
        "Off_Name": "ST PATRICKS B N S",
        "County": "Cork",
        "Ethos": "CATHOLIC",
        "xcoord": "168758",
        "ycoord": "72861",
        "Long": "-8.45401",
        "Lat": "51.9072",
        "note": "9"
    },
    "17105I": {
        "Roll_No": "17105I",
        "Off_Name": "MUIRE GAN SMAL C",
        "County": "Cork",
        "Ethos": "CATHOLIC",
        "xcoord": "165711",
        "ycoord": "70581",
        "Long": "-8.49806",
        "Lat": "51.8865",
        "note": "3"
    },
    "17313P": {
        "Roll_No": "17313P",
        "Off_Name": "OUR LADY OF LOURDES",
        "County": "Cork",
        "Ethos": "CATHOLIC",
        "xcoord": "168738",
        "ycoord": "70891",
        "Long": "-8.45412",
        "Lat": "51.8895",
        "note": "9"
    },
    "17993R": {
        "Roll_No": "17993R",
        "Off_Name": "SCOIL MHUIRE GAN SMAL B",
        "County": "Cork",
        "Ethos": "CATHOLIC",
        "xcoord": "165711",
        "ycoord": "70581",
        "Long": "-8.49806",
        "Lat": "51.8865",
        "note": "7"
    },
    "18153B": {
        "Roll_No": "18153B",
        "Off_Name": "S N PADRAIG NAOFA C",
        "County": "Cork",
        "Ethos": "CATHOLIC",
        "xcoord": "168769",
        "ycoord": "72942",
        "Long": "-8.45386",
        "Lat": "51.9079",
        "note": "2"
    },
    "18154D": {
        "Roll_No": "18154D",
        "Off_Name": "S N PADRAIG NAOFA",
        "County": "Cork",
        "Ethos": "CATHOLIC",
        "xcoord": "168745",
        "ycoord": "72847",
        "Long": "-8.4542",
        "Lat": "51.907",
        "note": "3"
    },
    "18217B": {
        "Roll_No": "18217B",
        "Off_Name": "SCOIL PADRE PIO N S",
        "County": "Cork",
        "Ethos": "CATHOLIC",
        "xcoord": "166178",
        "ycoord": "72824",
        "Long": "-8.4915",
        "Lat": "51.9067",
        "note": "4"
    },
    "18253F": {
        "Roll_No": "18253F",
        "Off_Name": "SCOIL NAOMH CAITRIONA",
        "County": "Cork",
        "Ethos": "CATHOLIC",
        "xcoord": "164513",
        "ycoord": "70565",
        "Long": "-8.51546",
        "Lat": "51.8863",
        "note": "0"
    },
    "18292P": {
        "Roll_No": "18292P",
        "Off_Name": "GAELSCOIL AN TEAGHLAIGH NAOFA",
        "County": "Cork",
        "Ethos": "CATHOLIC",
        "xcoord": "167314",
        "ycoord": "70184",
        "Long": "-8.47474",
        "Lat": "51.883",
        "note": "1"
    },
    "18356P": {
        "Roll_No": "18356P",
        "Off_Name": "S N BARRA NAOFA",
        "County": "Cork",
        "Ethos": "CHURCH OF IRELAND",
        "xcoord": "166699",
        "ycoord": "71423",
        "Long": "-8.48379",
        "Lat": "51.8941",
        "note": "2"
    },
    "18388F": {
        "Roll_No": "18388F",
        "Off_Name": "SCOIL NAOMH MICHEAL",
        "County": "Cork",
        "Ethos": "CHURCH OF IRELAND",
        "xcoord": "171132",
        "ycoord": "71530",
        "Long": "-8.4194",
        "Lat": "51.8953",
        "note": "4"
    },
    "18563U": {
        "Roll_No": "18563U",
        "Off_Name": "SCOIL NAOMH BRID C",
        "County": "Cork",
        "Ethos": "CATHOLIC",
        "xcoord": "169346",
        "ycoord": "70143",
        "Long": "-8.44523",
        "Lat": "51.8828",
        "note": "6"
    },
    "18566D": {
        "Roll_No": "18566D",
        "Off_Name": "S N ATHAIR MAITIU C",
        "County": "Cork",
        "Ethos": "CATHOLIC",
        "xcoord": "165836",
        "ycoord": "69173",
        "Long": "-8.49611",
        "Lat": "51.8738",
        "note": "3"
    },
    "18587L": {
        "Roll_No": "18587L",
        "Off_Name": "SCOIL MHUIRE BANRION",
        "County": "Cork",
        "Ethos": "CATHOLIC",
        "xcoord": "170857",
        "ycoord": "73446",
        "Long": "-8.42356",
        "Lat": "51.9125",
        "note": "7"
    },
    "18734V": {
        "Roll_No": "18734V",
        "Off_Name": "REALT NA MAIDINE",
        "County": "Cork",
        "Ethos": "CATHOLIC",
        "xcoord": "167046",
        "ycoord": "69693",
        "Long": "-8.47859",
        "Lat": "51.8786",
        "note": "2"
    },
    "18786R": {
        "Roll_No": "18786R",
        "Off_Name": "SCOIL IOSAGAIN",
        "County": "Cork",
        "Ethos": "CATHOLIC",
        "xcoord": "166672",
        "ycoord": "73228",
        "Long": "-8.48436",
        "Lat": "51.9103",
        "note": "7"
    },
    "19000E": {
        "Roll_No": "19000E",
        "Off_Name": "S N AN SPIORAID NAOMH C",
        "County": "Cork",
        "Ethos": "CATHOLIC",
        "xcoord": "163682",
        "ycoord": "69681",
        "Long": "-8.52744",
        "Lat": "51.8783",
        "note": "3"
    },
    "19231A": {
        "Roll_No": "19231A",
        "Off_Name": "S N BARRA NAOFA BHUACH",
        "County": "Cork",
        "Ethos": "CATHOLIC",
        "xcoord": "170553",
        "ycoord": "70785",
        "Long": "-8.42775",
        "Lat": "51.8886",
        "note": "3"
    },
    "19232C": {
        "Roll_No": "19232C",
        "Off_Name": "S N BARRA NAOFA CAILINI",
        "County": "Cork",
        "Ethos": "CATHOLIC",
        "xcoord": "170527",
        "ycoord": "70832",
        "Long": "-8.42813",
        "Lat": "51.889",
        "note": "7"
    },
    "19426P": {
        "Roll_No": "19426P",
        "Off_Name": "S N MHARCUIS B",
        "County": "Cork",
        "Ethos": "CATHOLIC",
        "xcoord": "168552",
        "ycoord": "73269",
        "Long": "-8.45704",
        "Lat": "51.9108",
        "note": "9"
    },
    "19427R": {
        "Roll_No": "19427R",
        "Off_Name": "S N BHREANNDAIN C",
        "County": "Cork",
        "Ethos": "CATHOLIC",
        "xcoord": "168072",
        "ycoord": "73169",
        "Long": "-8.46401",
        "Lat": "51.9099",
        "note": "2"
    },
    "19714U": {
        "Roll_No": "19714U",
        "Off_Name": "MHUIRE AR CHNOC HAOINE",
        "County": "Cork",
        "Ethos": "CATHOLIC",
        "xcoord": "165175",
        "ycoord": "72620",
        "Long": "-8.50605",
        "Lat": "51.9048",
        "note": "2"
    },
    "19730S": {
        "Roll_No": "19730S",
        "Off_Name": "SCOIL OILIBHEIR",
        "County": "Cork",
        "Ethos": "CATHOLIC",
        "xcoord": "168423",
        "ycoord": "74421",
        "Long": "-8.45902",
        "Lat": "51.9212",
        "note": "0"
    },
    "19852J": {
        "Roll_No": "19852J",
        "Off_Name": "GAELSCOIL UI RIADA",
        "County": "Cork",
        "Ethos": "CATHOLIC",
        "xcoord": "164750",
        "ycoord": "69773",
        "Long": "-8.51194",
        "Lat": "51.8792",
        "note": "7"
    },
    "19882S": {
        "Roll_No": "19882S",
        "Off_Name": "SCOIL AN ATHAIR TADHG O MURCHU",
        "County": "Cork",
        "Ethos": "CATHOLIC",
        "xcoord": "169504",
        "ycoord": "69495",
        "Long": "-8.44287",
        "Lat": "51.8769",
        "note": "4"
    },
    "19906G": {
        "Roll_No": "19906G",
        "Off_Name": "Cork Educate Together National School",
        "County": "Cork",
        "Ethos": "MULTI DENOMINATIONAL",
        "xcoord": "167091",
        "ycoord": "71933",
        "Long": "-8.47815",
        "Lat": "51.8987",
        "note": "2"
    },
    "19908K": {
        "Roll_No": "19908K",
        "Off_Name": "GAELSCOIL MHACHAN",
        "County": "Cork",
        "Ethos": "CATHOLIC",
        "xcoord": "172286",
        "ycoord": "71137",
        "Long": "-8.40261",
        "Lat": "51.8919",
        "note": "9"
    },
    "19909M": {
        "Roll_No": "19909M",
        "Off_Name": "GAELSCOIL PEIG SAYERS",
        "County": "Cork",
        "Ethos": "CATHOLIC",
        "xcoord": "166632",
        "ycoord": "74525",
        "Long": "-8.48507",
        "Lat": "51.922",
        "note": "1"
    },
    "19993E": {
        "Roll_No": "19993E",
        "Off_Name": "GAELSCOIL AN GHOIRT ALAINN",
        "County": "Cork",
        "Ethos": "MULTI DENOMINATIONAL",
        "xcoord": "169644",
        "ycoord": "72976",
        "Long": "-8.44115",
        "Lat": "51.9082",
        "note": "2"
    },
    "20036J": {
        "Roll_No": "20036J",
        "Off_Name": "NORTH PRESENTATION PRIMARY SCHOOL",
        "County": "Cork",
        "Ethos": "CATHOLIC",
        "xcoord": "167281",
        "ycoord": "72646",
        "Long": "-8.47546",
        "Lat": "51.9051",
        "note": "8"
    },
    "20038N": {
        "Roll_No": "20038N",
        "Off_Name": "SCOIL AISEIRI CHRIOST",
        "County": "Cork",
        "Ethos": "CATHOLIC",
        "xcoord": "166734",
        "ycoord": "73361",
        "Long": "-8.48347",
        "Lat": "51.9115",
        "note": "1"
    },
    "20077A": {
        "Roll_No": "20077A",
        "Off_Name": "SCOIL AN SPIORAID NAOMH (BOYS)",
        "County": "Cork",
        "Ethos": "CATHOLIC",
        "xcoord": "163628",
        "ycoord": "69671",
        "Long": "-8.52822",
        "Lat": "51.8782",
        "note": "6"
    },
    "20106E": {
        "Roll_No": "20106E",
        "Off_Name": "SCOIL NIOCLAIS",
        "County": "Cork",
        "Ethos": "CATHOLIC",
        "xcoord": "168562",
        "ycoord": "68141",
        "Long": "-8.45643",
        "Lat": "51.8647",
        "note": "4"
    },
    "20140E": {
        "Roll_No": "20140E",
        "Off_Name": "SCOIL MHUIRE FATIMA",
        "County": "Cork",
        "Ethos": "CATHOLIC",
        "xcoord": "166931",
        "ycoord": "72883",
        "Long": "-8.48056",
        "Lat": "51.9073",
        "note": "3"
    },
    "20388R": {
        "Roll_No": "20388R",
        "Off_Name": "Bunscoil Chriost Ri",
        "County": "Cork",
        "Ethos": "CATHOLIC",
        "xcoord": "167859",
        "ycoord": "70771",
        "Long": "-8.46688",
        "Lat": "51.8883",
        "note": "0"
    },
    "20389T": {
        "Roll_No": "20389T",
        "Off_Name": "Scoil Maria Assumpta",
        "County": "Cork",
        "Ethos": "CATHOLIC",
        "xcoord": "166975.75",
        "ycoord": "70180.24",
        "Long": "-8.47965",
        "Lat": "51.883",
        "note": "3"
    },
    "00467B": {
        "Roll_No": "00467B",
        "Off_Name": "BALLINSPITTLE N S",
        "County": "Cork",
        "Ethos": "CATHOLIC",
        "xcoord": "158804",
        "ycoord": "45849",
        "Long": "-8.59545",
        "Lat": "51.6637",
        "note": "5"
    },
    "00512D": {
        "Roll_No": "00512D",
        "Off_Name": "MIDLETON CONVENT N S",
        "County": "Cork",
        "Ethos": "CATHOLIC",
        "xcoord": "188795",
        "ycoord": "72876",
        "Long": "-8.16283",
        "Lat": "51.9081",
        "note": "8"
    },
    "01272O": {
        "Roll_No": "01272O",
        "Off_Name": "S N CHUAN DOIR",
        "County": "Cork",
        "Ethos": "CATHOLIC",
        "xcoord": "124116",
        "ycoord": "35556",
        "Long": "-9.09453",
        "Lat": "51.5676",
        "note": "0"
    },
    "01687U": {
        "Roll_No": "01687U",
        "Off_Name": "DROMLEIGH N S",
        "County": "Cork",
        "Ethos": "CATHOLIC",
        "xcoord": "128455",
        "ycoord": "65146",
        "Long": "-9.03803",
        "Lat": "51.8341",
        "note": "2"
    },
    "01692N": {
        "Roll_No": "01692N",
        "Off_Name": "FIRMOUNT MIXED N S",
        "County": "Cork",
        "Ethos": "CATHOLIC",
        "xcoord": "152104",
        "ycoord": "81919",
        "Long": "-8.69727",
        "Lat": "51.9874",
        "note": "9"
    },
    "01867W": {
        "Roll_No": "01867W",
        "Off_Name": "CASTLELYONS B N S",
        "County": "Cork",
        "Ethos": "CATHOLIC",
        "xcoord": "184344",
        "ycoord": "92268",
        "Long": "-8.2284",
        "Lat": "52.0822",
        "note": "7"
    },
    "02114B": {
        "Roll_No": "02114B",
        "Off_Name": "S N BAILE UI GHIBLIN",
        "County": "Cork",
        "Ethos": "CATHOLIC",
        "xcoord": "186429",
        "ycoord": "113438",
        "Long": "-8.19883",
        "Lat": "52.2726",
        "note": "4"
    },
    "02278I": {
        "Roll_No": "02278I",
        "Off_Name": "MILLSTREET CONVENT N S",
        "County": "Cork",
        "Ethos": "CATHOLIC",
        "xcoord": "126926",
        "ycoord": "90125",
        "Long": "-9.06551",
        "Lat": "52.0584",
        "note": "0"
    },
    "02452V": {
        "Roll_No": "02452V",
        "Off_Name": "CLOYNE B N S",
        "County": "Cork",
        "Ethos": "CATHOLIC",
        "xcoord": "191294",
        "ycoord": "67684",
        "Long": "-8.12639",
        "Lat": "51.8614",
        "note": "2"
    },
    "02803B": {
        "Roll_No": "02803B",
        "Off_Name": "BANTEER N S",
        "County": "Cork",
        "Ethos": "CATHOLIC",
        "xcoord": "139016",
        "ycoord": "98040",
        "Long": "-8.89067",
        "Lat": "52.131",
        "note": "1"
    },
    "03704E": {
        "Roll_No": "03704E",
        "Off_Name": "S N SEAN BAILE MOR",
        "County": "Cork",
        "Ethos": "CATHOLIC",
        "xcoord": "167481",
        "ycoord": "107458",
        "Long": "-8.47586",
        "Lat": "52.218",
        "note": "0"
    },
    "04054T": {
        "Roll_No": "04054T",
        "Off_Name": "BALLINDANGAN MIXED N S",
        "County": "Cork",
        "Ethos": "CATHOLIC",
        "xcoord": "177061",
        "ycoord": "109393",
        "Long": "-8.33581",
        "Lat": "52.2359",
        "note": "1"
    },
    "04118T": {
        "Roll_No": "04118T",
        "Off_Name": "LEAMLARA MIXED N S",
        "County": "Cork",
        "Ethos": "CATHOLIC",
        "xcoord": "181928",
        "ycoord": "79727",
        "Long": "-8.26299",
        "Lat": "51.9695",
        "note": "4"
    },
    "04152T": {
        "Roll_No": "04152T",
        "Off_Name": "S N CNOC AN BHILE",
        "County": "Cork",
        "Ethos": "CATHOLIC",
        "xcoord": "152764",
        "ycoord": "61068",
        "Long": "-8.68481",
        "Lat": "51.8",
        "note": "0"
    },
    "04186N": {
        "Roll_No": "04186N",
        "Off_Name": "S N BHIORAINN",
        "County": "Cork",
        "Ethos": "CATHOLIC",
        "xcoord": "152015",
        "ycoord": "76419",
        "Long": "-8.6978",
        "Lat": "51.9379",
        "note": "0"
    },
    "04230N": {
        "Roll_No": "04230N",
        "Off_Name": "SCOIL NAOMH EOIN",
        "County": "Cork",
        "Ethos": "CATHOLIC",
        "xcoord": "184386",
        "ycoord": "81872",
        "Long": "-8.22732",
        "Lat": "51.9888",
        "note": "5"
    },
    "04268P": {
        "Roll_No": "04268P",
        "Off_Name": "CLOCHAR NA TOIRBHIRTE",
        "County": "Cork",
        "Ethos": "CATHOLIC",
        "xcoord": "159656",
        "ycoord": "107539",
        "Long": "-8.59037",
        "Lat": "52.2182",
        "note": "7"
    },
    "04442F": {
        "Roll_No": "04442F",
        "Off_Name": "KYLE N S",
        "County": "Cork",
        "Ethos": "CATHOLIC",
        "xcoord": "203932",
        "ycoord": "77867",
        "Long": "-7.9428",
        "Lat": "51.953",
        "note": "5"
    },
    "04578H": {
        "Roll_No": "04578H",
        "Off_Name": "BALLYVONGANE MIXED N S",
        "County": "Cork",
        "Ethos": "CATHOLIC",
        "xcoord": "140954",
        "ycoord": "75828",
        "Long": "-8.85853",
        "Lat": "51.9316",
        "note": "8"
    },
    "04953H": {
        "Roll_No": "04953H",
        "Off_Name": "BALLYHASS MIXED N S",
        "County": "Cork",
        "Ethos": "CATHOLIC",
        "xcoord": "144996",
        "ycoord": "102731",
        "Long": "-8.8041",
        "Lat": "52.1738",
        "note": "9"
    },
    "05257P": {
        "Roll_No": "05257P",
        "Off_Name": "PRESENTATION CONVENT",
        "County": "Cork",
        "Ethos": "CATHOLIC",
        "xcoord": "148672",
        "ycoord": "55361",
        "Long": "-8.74329",
        "Lat": "51.7484",
        "note": "2"
    },
    "05477G": {
        "Roll_No": "05477G",
        "Off_Name": "LARAGH N S",
        "County": "Cork",
        "Ethos": "CATHOLIC",
        "xcoord": "145502",
        "ycoord": "56404",
        "Long": "-8.78935",
        "Lat": "51.7575",
        "note": "5"
    },
    "05508O": {
        "Roll_No": "05508O",
        "Off_Name": "ST COLUMBAS N.S",
        "County": "Cork",
        "Ethos": "CATHOLIC",
        "xcoord": "169486",
        "ycoord": "69073",
        "Long": "-8.4431",
        "Lat": "51.8732",
        "note": "0"
    },
    "05565D": {
        "Roll_No": "05565D",
        "Off_Name": "TRAFRASK MIXED N S",
        "County": "Cork",
        "Ethos": "CATHOLIC",
        "xcoord": "84915",
        "ycoord": "49561",
        "Long": "-9.66435",
        "Lat": "51.6868",
        "note": "1"
    },
    "05636A": {
        "Roll_No": "05636A",
        "Off_Name": "DUNMANWAY MODEL N S",
        "County": "Cork",
        "Ethos": "CHURCH OF IRELAND",
        "xcoord": "122927",
        "ycoord": "52134",
        "Long": "-9.11533",
        "Lat": "51.7164",
        "note": "3"
    },
    "05656G": {
        "Roll_No": "05656G",
        "Off_Name": "S N AN GHOILIN",
        "County": "Cork",
        "Ethos": "CATHOLIC",
        "xcoord": "81051",
        "ycoord": "27977",
        "Long": "-9.71289",
        "Lat": "51.4921",
        "note": "0"
    },
    "06295F": {
        "Roll_No": "06295F",
        "Off_Name": "FREEMOUNT MIXED N S",
        "County": "Cork",
        "Ethos": "CATHOLIC",
        "xcoord": "139672",
        "ycoord": "114355",
        "Long": "-8.88399",
        "Lat": "52.2777",
        "note": "4"
    },
    "06342L": {
        "Roll_No": "06342L",
        "Off_Name": "VICARSTOWN MIXED N S",
        "County": "Cork",
        "Ethos": "CATHOLIC",
        "xcoord": "154917",
        "ycoord": "78207",
        "Long": "-8.65584",
        "Lat": "51.9543",
        "note": "3"
    },
    "07006A": {
        "Roll_No": "07006A",
        "Off_Name": "BALLYCLOUGH MIXED N S",
        "County": "Cork",
        "Ethos": "CATHOLIC",
        "xcoord": "149694",
        "ycoord": "101875",
        "Long": "-8.7353",
        "Lat": "52.1665",
        "note": "4"
    },
    "07242M": {
        "Roll_No": "07242M",
        "Off_Name": "CLOGHROE MIXED N S",
        "County": "Cork",
        "Ethos": "CATHOLIC",
        "xcoord": "157666",
        "ycoord": "74128",
        "Long": "-8.61535",
        "Lat": "51.9178",
        "note": "3"
    },
    "07651G": {
        "Roll_No": "07651G",
        "Off_Name": "CONVENT OF MERCY",
        "County": "Cork",
        "Ethos": "CATHOLIC",
        "xcoord": "139083",
        "ycoord": "41839",
        "Long": "-8.87977",
        "Lat": "51.6259",
        "note": "7"
    },
    "08393P": {
        "Roll_No": "08393P",
        "Off_Name": "S N RATH DUBH",
        "County": "Cork",
        "Ethos": "CATHOLIC",
        "xcoord": "159231",
        "ycoord": "84746",
        "Long": "-8.59386",
        "Lat": "52.0134",
        "note": "3"
    },
    "08430S": {
        "Roll_No": "08430S",
        "Off_Name": "SCOIL NAOMH SEOSAMH",
        "County": "Cork",
        "Ethos": "CATHOLIC",
        "xcoord": "112626",
        "ycoord": "34028",
        "Long": "-9.25984",
        "Lat": "51.5522",
        "note": "6"
    },
    "08828B": {
        "Roll_No": "08828B",
        "Off_Name": "KILCORNEY MIXED N S",
        "County": "Cork",
        "Ethos": "CATHOLIC",
        "xcoord": "134047",
        "ycoord": "90379",
        "Long": "-8.96175",
        "Lat": "52.0616",
        "note": "5"
    },
    "08972I": {
        "Roll_No": "08972I",
        "Off_Name": "CASTLEALACK N S",
        "County": "Cork",
        "Ethos": "CATHOLIC",
        "xcoord": "149017",
        "ycoord": "58863",
        "Long": "-8.73881",
        "Lat": "51.7799",
        "note": "4"
    },
    "09161W": {
        "Roll_No": "09161W",
        "Off_Name": "OUR LADY OF MERCY N S",
        "County": "Cork",
        "Ethos": "CATHOLIC",
        "xcoord": "100191",
        "ycoord": "48317",
        "Long": "-9.44315",
        "Lat": "51.6786",
        "note": "6"
    },
    "09537S": {
        "Roll_No": "09537S",
        "Off_Name": "BALLINADEE N S",
        "County": "Cork",
        "Ethos": "CATHOLIC",
        "xcoord": "156731",
        "ycoord": "51386",
        "Long": "-8.6261",
        "Lat": "51.7133",
        "note": "0"
    },
    "09815U": {
        "Roll_No": "09815U",
        "Off_Name": "TULLASLEASE MIXED N S",
        "County": "Cork",
        "Ethos": "CATHOLIC",
        "xcoord": "135795",
        "ycoord": "118587",
        "Long": "-8.9416",
        "Lat": "52.3153",
        "note": "0"
    },
    "09872J": {
        "Roll_No": "09872J",
        "Off_Name": "CLOGHOOLA MIXED N S",
        "County": "Cork",
        "Ethos": "CATHOLIC",
        "xcoord": "126785",
        "ycoord": "86430",
        "Long": "-9.06678",
        "Lat": "52.0252",
        "note": "4"
    },
    "10047I": {
        "Roll_No": "10047I",
        "Off_Name": "MACROOM CONVENT N S",
        "County": "Cork",
        "Ethos": "CATHOLIC",
        "xcoord": "134142",
        "ycoord": "72696",
        "Long": "-8.95697",
        "Lat": "51.9027",
        "note": "6"
    },
    "10243I": {
        "Roll_No": "10243I",
        "Off_Name": "S N ACHADH EOCHAILLE",
        "County": "Cork",
        "Ethos": "CATHOLIC",
        "xcoord": "138923",
        "ycoord": "50702",
        "Long": "-8.88363",
        "Lat": "51.7055",
        "note": "3"
    },
    "10499U": {
        "Roll_No": "10499U",
        "Off_Name": "KILGARIFFE N S",
        "County": "Cork",
        "Ethos": "CHURCH OF IRELAND",
        "xcoord": "139503",
        "ycoord": "41766",
        "Long": "-8.8737",
        "Lat": "51.6253",
        "note": "6"
    },
    "10523O": {
        "Roll_No": "10523O",
        "Off_Name": "FERMOY ADAIR N S",
        "County": "Cork",
        "Ethos": "CHURCH OF IRELAND",
        "xcoord": "181261",
        "ycoord": "98964",
        "Long": "-8.27375",
        "Lat": "52.1423",
        "note": "9"
    },
    "10548H": {
        "Roll_No": "10548H",
        "Off_Name": "ST BRENDANS NATIONAL SCHOOL",
        "County": "Cork",
        "Ethos": "CHURCH OF IRELAND",
        "xcoord": "99430",
        "ycoord": "48608",
        "Long": "-9.45424",
        "Lat": "51.681",
        "note": "1"
    },
    "10724B": {
        "Roll_No": "10724B",
        "Off_Name": "SOUTH ABBEY NS",
        "County": "Cork",
        "Ethos": "CHURCH OF IRELAND",
        "xcoord": "210823",
        "ycoord": "77406",
        "Long": "-7.84257",
        "Lat": "51.9488",
        "note": "7"
    },
    "10739O": {
        "Roll_No": "10739O",
        "Off_Name": "BALLINCARRIGA MXD N S",
        "County": "Cork",
        "Ethos": "CATHOLIC",
        "xcoord": "128385",
        "ycoord": "50689",
        "Long": "-9.03606",
        "Lat": "51.7042",
        "note": "9"
    },
    "10771K": {
        "Roll_No": "10771K",
        "Off_Name": "COBH N S",
        "County": "Cork",
        "Ethos": "CHURCH OF IRELAND",
        "xcoord": "180258",
        "ycoord": "66619",
        "Long": "-8.28654",
        "Lat": "51.8516",
        "note": "1"
    },
    "11236Q": {
        "Roll_No": "11236Q",
        "Off_Name": "NEWMARKET B N S",
        "County": "Cork",
        "Ethos": "CATHOLIC",
        "xcoord": "131378",
        "ycoord": "107392",
        "Long": "-9.00409",
        "Lat": "52.2141",
        "note": "2"
    },
    "11245R": {
        "Roll_No": "11245R",
        "Off_Name": "SN CILL MHIC ABHAIDH",
        "County": "Cork",
        "Ethos": "CATHOLIC",
        "xcoord": "121159",
        "ycoord": "37168",
        "Long": "-9.13754",
        "Lat": "51.5817",
        "note": "8"
    },
    "11249C": {
        "Roll_No": "11249C",
        "Off_Name": "BURNFORT N S",
        "County": "Cork",
        "Ethos": "CATHOLIC",
        "xcoord": "159040",
        "ycoord": "90698",
        "Long": "-8.59736",
        "Lat": "52.0668",
        "note": "7"
    },
    "11262R": {
        "Roll_No": "11262R",
        "Off_Name": "DRUIMNE N S",
        "County": "Cork",
        "Ethos": "CATHOLIC",
        "xcoord": "145507",
        "ycoord": "118359",
        "Long": "-8.79915",
        "Lat": "52.3143",
        "note": "0"
    },
    "11337W": {
        "Roll_No": "11337W",
        "Off_Name": "KILMAGNER N S",
        "County": "Cork",
        "Ethos": "CATHOLIC",
        "xcoord": "188371",
        "ycoord": "96919",
        "Long": "-8.16981",
        "Lat": "52.1242",
        "note": "3"
    },
    "11496T": {
        "Roll_No": "11496T",
        "Off_Name": "Shandrum National School",
        "County": "Cork",
        "Ethos": "CATHOLIC",
        "xcoord": "147731",
        "ycoord": "121777",
        "Long": "-8.76707",
        "Lat": "52.3452",
        "note": "1"
    },
    "11931L": {
        "Roll_No": "11931L",
        "Off_Name": "S N IOSEPH",
        "County": "Cork",
        "Ethos": "CATHOLIC",
        "xcoord": "116594",
        "ycoord": "42947",
        "Long": "-9.20476",
        "Lat": "51.633",
        "note": "5"
    },
    "11992I": {
        "Roll_No": "11992I",
        "Off_Name": "WHITEGATE MIXED N S",
        "County": "Cork",
        "Ethos": "CATHOLIC",
        "xcoord": "183809",
        "ycoord": "63428",
        "Long": "-8.23485",
        "Lat": "51.823",
        "note": "0"
    },
    "12004A": {
        "Roll_No": "12004A",
        "Off_Name": "MALLOW NO 1 N S",
        "County": "Cork",
        "Ethos": "CHURCH OF IRELAND",
        "xcoord": "155699",
        "ycoord": "98624",
        "Long": "-8.64711",
        "Lat": "52.1378",
        "note": "8"
    },
    "12012W": {
        "Roll_No": "12012W",
        "Off_Name": "ST LUKES N S DOUGLAS",
        "County": "Cork",
        "Ethos": "CHURCH OF IRELAND",
        "xcoord": "169995",
        "ycoord": "69100",
        "Long": "-8.43571",
        "Lat": "51.8734",
        "note": "9"
    },
    "12015F": {
        "Roll_No": "12015F",
        "Off_Name": "LISCARROL N S",
        "County": "Cork",
        "Ethos": "CATHOLIC",
        "xcoord": "144993",
        "ycoord": "112173",
        "Long": "-8.80568",
        "Lat": "52.2586",
        "note": "7"
    },
    "12041G": {
        "Roll_No": "12041G",
        "Off_Name": "ST JOHN THE BAPTIST N S",
        "County": "Cork",
        "Ethos": "CHURCH OF IRELAND",
        "xcoord": "188433",
        "ycoord": "73722",
        "Long": "-8.16812",
        "Lat": "51.9157",
        "note": "1"
    },
    "12147W": {
        "Roll_No": "12147W",
        "Off_Name": "S N AN AIRD",
        "County": "Cork",
        "Ethos": "CATHOLIC",
        "xcoord": "136922",
        "ycoord": "35723",
        "Long": "-8.90988",
        "Lat": "51.5707",
        "note": "3"
    },
    "12169J": {
        "Roll_No": "12169J",
        "Off_Name": "TEMPLEBRADY N S",
        "County": "Cork",
        "Ethos": "CHURCH OF IRELAND",
        "xcoord": "179531",
        "ycoord": "60858",
        "Long": "-8.29675",
        "Lat": "51.7998",
        "note": "7"
    },
    "12259K": {
        "Roll_No": "12259K",
        "Off_Name": "S N OIR CHEANN",
        "County": "Cork",
        "Ethos": "CATHOLIC",
        "xcoord": "61713",
        "ycoord": "48525",
        "Long": "-9.99928",
        "Lat": "51.6723",
        "note": "3"
    },
    "12263B": {
        "Roll_No": "12263B",
        "Off_Name": "GOGGINSHILL N S",
        "County": "Cork",
        "Ethos": "CATHOLIC",
        "xcoord": "160165",
        "ycoord": "63563",
        "Long": "-8.57781",
        "Lat": "51.823",
        "note": "4"
    },
    "12281D": {
        "Roll_No": "12281D",
        "Off_Name": "WALTERSTOWN N S",
        "County": "Cork",
        "Ethos": "CATHOLIC",
        "xcoord": "183776",
        "ycoord": "68258",
        "Long": "-8.23556",
        "Lat": "51.8664",
        "note": "9"
    },
    "12292I": {
        "Roll_No": "12292I",
        "Off_Name": "CANOVEE MIXED N S",
        "County": "Cork",
        "Ethos": "CATHOLIC",
        "xcoord": "141102",
        "ycoord": "71076",
        "Long": "-8.85557",
        "Lat": "51.8889",
        "note": "4"
    },
    "12382J": {
        "Roll_No": "12382J",
        "Off_Name": "CURRIGLASS NS",
        "County": "Cork",
        "Ethos": "CATHOLIC",
        "xcoord": "196657",
        "ycoord": "93544",
        "Long": "-8.04878",
        "Lat": "52.0939",
        "note": "3"
    },
    "12383L": {
        "Roll_No": "12383L",
        "Off_Name": "UNION HALL MIXED N S",
        "County": "Cork",
        "Ethos": "CATHOLIC",
        "xcoord": "120694",
        "ycoord": "33976",
        "Long": "-9.14353",
        "Lat": "51.5529",
        "note": "2"
    },
    "12395S": {
        "Roll_No": "12395S",
        "Off_Name": "RUSHEEN NS",
        "County": "Cork",
        "Ethos": "CATHOLIC",
        "xcoord": "137873",
        "ycoord": "76498",
        "Long": "-8.90345",
        "Lat": "51.9373",
        "note": "5"
    },
    "12446J": {
        "Roll_No": "12446J",
        "Off_Name": "S N GLEANN NA HULADH",
        "County": "Cork",
        "Ethos": "CATHOLIC",
        "xcoord": "175154",
        "ycoord": "111352",
        "Long": "-8.36387",
        "Lat": "52.2534",
        "note": "5"
    },
    "12447L": {
        "Roll_No": "12447L",
        "Off_Name": "BALTYDANIEL N S",
        "County": "Cork",
        "Ethos": "CATHOLIC",
        "xcoord": "154194",
        "ycoord": "103997",
        "Long": "-8.66982",
        "Lat": "52.186",
        "note": "7"
    },
    "12456M": {
        "Roll_No": "12456M",
        "Off_Name": "TIMOLEAGUE N S",
        "County": "Cork",
        "Ethos": "CATHOLIC",
        "xcoord": "147152",
        "ycoord": "43538",
        "Long": "-8.76351",
        "Lat": "51.642",
        "note": "3"
    },
    "12505W": {
        "Roll_No": "12505W",
        "Off_Name": "KILBARRY N S",
        "County": "Cork",
        "Ethos": "CATHOLIC",
        "xcoord": "126987",
        "ycoord": "68247",
        "Long": "-9.05998",
        "Lat": "51.8618",
        "note": "3"
    },
    "12598J": {
        "Roll_No": "12598J",
        "Off_Name": "ARDAGH BOYS N S",
        "County": "Cork",
        "Ethos": "CATHOLIC",
        "xcoord": "128679",
        "ycoord": "36852",
        "Long": "-9.02899",
        "Lat": "51.5799",
        "note": "0"
    },
    "12676D": {
        "Roll_No": "12676D",
        "Off_Name": "CLOGHEEN MXD N S",
        "County": "Cork",
        "Ethos": "CATHOLIC",
        "xcoord": "161358",
        "ycoord": "73019",
        "Long": "-8.56156",
        "Lat": "51.9081",
        "note": "8"
    },
    "12685E": {
        "Roll_No": "12685E",
        "Off_Name": "RUSHNACAHARA N S",
        "County": "Cork",
        "Ethos": "CATHOLIC",
        "xcoord": "87608",
        "ycoord": "40389",
        "Long": "-9.62247",
        "Lat": "51.605",
        "note": "1"
    },